id,name,lat,lon
0,Vo Van Tan / Tay Thanh,10.803808,106.634146
1,Au Co / Co Bac,10.801028,106.622735
2,Thu Thiem Overpass 2,10.805289,106.648235
3,Hai Ba Trung / Le Quy Don,10.801412,106.642370
4,Hoang Van Thu Underpass,10.805160,106.631874
5,Lac Long Quan / Nguyen Trai,10.802951,106.640879
6,Tan Phu North Underpass 6,10.807006,106.636146
7,Vo Thi Sau / Mac Thi Buoi,10.792837,106.621492
8,Bui Vien / Cach Mang Thang Tam,10.804081,106.629942
9,Phu Nhuan Center Station 9,10.797697,106.620000
10,Landmark Tower Junction 10,10.787950,106.648202
11,Ngo Duc Ke Overpass,10.805894,106.626578
12,Nguyen Hue / Huynh Van Banh,10.803988,106.635778
13,Thu Duc North Overpass 13,10.820911,106.627770
14,District 3 Park Corner 14,10.804145,106.641046
15,Do Xuan Hop Junction,10.808350,106.620221
16,Le Lai / Nguyen Phi Khanh,10.800036,106.624755
17,Binh Thanh Gate Crossing 17,10.807961,106.636078
18,Pham Van Dong Square,10.805898,106.620000
19,Tan Phu North Market 19,10.813854,106.636711
20,Nguyen Van Linh / Hoang Sa,10.813405,106.624123
21,City Hall Terminal 21,10.805705,106.622296
22,Le Duan / Phan Van Tri,10.814648,106.624981
23,Ben Thanh Crossing 23,10.817644,106.631491
24,Hai Ba Trung / Xo Viet Nghe Tinh,10.806838,106.627462
25,Phu My Hung Market 25,10.812891,106.632692
26,Gia Dinh Park Intersection 26,10.820191,106.643991
27,Ton Duc Thang / Hung Vuong,10.810702,106.620000
28,Nam Ky Khoi Nghia Overpass,10.802551,106.636679
29,Phan Van Tri / Pham Ngu Lao,10.800994,106.620677
30,Turtle Lake Square 30,10.807612,106.635348
31,Tran Phu Market,10.806486,106.636120
32,Ben Thanh Crossing 32,10.817062,106.636861
33,Quang Trung / Tan Hoa Dong,10.821481,106.623212
34,Co Bac / Nguyen Hue,10.809397,106.638042
35,Lac Long Quan Circle,10.813822,106.629572
36,Cong Hoa Overpass,10.789781,106.639497
37,Nguyen Thi Minh Khai / Tan Son Nhi,10.806653,106.625603
38,Nam Ky Khoi Nghia / Tan Son Nhi,10.807314,106.627325
39,District 1 Hub Market 39,10.789805,106.632760
40,Binh Tan West Station 40,10.812061,106.632626
41,Le Trong Tan / Dong Khoi,10.819836,106.641656
42,Starlight Bridge Corner 42,10.801466,106.624466
43,Le Van Sy Circle,10.812527,106.627994
44,Le Quy Don / Vo Van Tan,10.798097,106.637423
45,Thu Duc North Crossing 45,10.818695,106.630803
46,Nguyen Thai Hoc / Le Duan,10.798333,106.627926
47,Nguyen Van Linh / Tran Quoc Thao,10.813145,106.624866
48,Ben Thanh Overpass 48,10.789523,106.620000
49,Tan Binh Plaza Circle 49,10.810330,106.623994
50,District 4 Port Circle 50,10.810416,106.632676
51,Hong Bang / Huynh Van Banh,10.797507,106.622365
52,Nam Ky Khoi Nghia Crossing,10.801487,106.629945
53,Huynh Van Banh / Ly Chinh Thang,10.814500,106.632122
54,Ben Thanh Crossing 54,10.807010,106.620033
55,Nguyen Van Linh Junction,10.822325,106.637699
56,Le Thanh Ton / Dong Khoi,10.812927,106.621036
57,Dong Khoi Corner,10.801437,106.646146
58,Cong Hoa / Hoang Dieu,10.809072,106.636023
59,Nguyen Van Cu / Hoang Dieu,10.812820,106.627507
60,Hoang Dieu / Nguyen Van Troi,10.820477,106.632178
61,Hai Ba Trung / Luy Ban Bich,10.806084,106.644150
62,Thanh Da Island Intersection 62,10.810107,106.644665
63,Nguyen Cong Tru / Le Duan,10.809557,106.641733
64,War Museum Area Overpass 64,10.813901,106.628814
65,Bui Vien Circle,10.817415,106.628980
66,Pham Ngu Lao / Le Trong Tan,10.816464,106.648624
67,Tay Thanh / Nguyen Xien,10.795725,106.635315
68,Dong Khoi / Hung Vuong,10.820386,106.641544
69,District 10 Center Corner 69,10.825802,106.630345
70,Tan Ky Tan Quy Corner,10.789848,106.638314
71,Bui Dinh Tuy Circle,10.805431,106.626620
72,Landmark Tower Square 72,10.804022,106.623990
73,Nguyen Van Cu / Nguyen Son,10.811795,106.641201
74,Tran Quoc Thao Circle,10.800159,106.626716
75,Saigon Zoo Area Terminal 75,10.811044,106.643757
76,District 5 Market Overpass 76,10.796357,106.634445
77,Reunification Palace Crossing 77,10.815863,106.635043
78,Thu Thiem Intersection 78,10.813129,106.620000
79,Nguyen Son Crossing,10.809047,106.632118
80,Notre Dame Area Terminal 80,10.791541,106.634762
81,Thu Duc North Station 81,10.803916,106.632817
82,Go Vap Junction Terminal 82,10.804587,106.621721
83,Tran Phu / Nguyen Son,10.797527,106.628162
84,Landmark Tower Terminal 84,10.814272,106.620000
85,Tan Phu North Intersection 85,10.818109,106.622207
86,Quang Trung Overpass,10.811018,106.624704
87,Le Van Sy Circle #1,10.808149,106.638745
88,Cach Mang Thang Tam / Nguyen Thi Dieu,10.798880,106.644664
89,Ton That Thuyet / Hoang Dieu,10.804150,106.633241
90,Ton That Thuyet / Co Giang,10.803208,106.637979
91,Tan Son Nhat Gate Station 91,10.816326,106.624186
92,Co Giang / Ton That Thuyet,10.788634,106.632909
93,Vo Thi Sau Terminal,10.794911,106.627052
94,Phan Van Tri / Nguyen Tat Thanh,10.809202,106.638554
95,Tan Ky Tan Quy Market,10.805092,106.620000
96,Saigon Central Crossing 96,10.815460,106.631502
97,District 1 Hub Circle 97,10.804872,106.626775
98,Phan Xich Long Crossing,10.797879,106.639350
99,Nguyen Thai Hoc / Vo Thi Sau,10.794496,106.632619
100,Saigon Central Intersection 100,10.799380,106.620000
101,Le Thanh Ton / Luy Ban Bich,10.808076,106.631693
102,Phan Xich Long / Yersin,10.802571,106.621136
103,Bui Vien Square,10.812970,106.639662
104,Nguyen Phi Khanh / Ut Tich,10.811301,106.629310
105,Hoang Sa / Vo Van Tan,10.798683,106.620000
106,Tran Quoc Thao / Le Trong Tan,10.794947,106.621907
107,Cho Lon Corner 107,10.812446,106.620000
108,Phan Van Tri / Le Loi,10.796041,106.627746
109,Le Lai / Hong Bang,10.816277,106.620000
110,Nguyen Van Cu / Le Van Viet,10.814464,106.624561
111,Turtle Lake Underpass 111,10.811124,106.620865
112,Ly Tu Trong / Nguyen Cong Tru,10.801669,106.626278
113,Bay Hien Junction Overpass 113,10.811970,106.626102
114,Tran Quang Khai Terminal,10.806169,106.631482
115,Le Trong Tan / Nguyen Cong Tru,10.765026,106.669026
116,Le Van Sy / Hoang Dieu,10.752594,106.651812
117,Dam Sen Park Terminal 117,10.748209,106.656091
118,Nguyen Van Troi / Nguyen Phi Khanh,10.762596,106.651717
119,Opera House Station 119,10.757703,106.648542
120,Lac Long Quan / Ngo Duc Ke,10.771767,106.654910
121,Le Quy Don Crossing,10.759636,106.660554
122,District 10 Center Intersection 122,10.760776,106.635504
123,Starlight Bridge Bridge 123,10.761193,106.648705
124,Nguyen Thi Dieu / Le Lai,10.760896,106.658728
125,District 4 Port Junction 125,10.762233,106.656345
126,Tan Binh Plaza Overpass 126,10.771679,106.653491
127,Ut Tich Circle,10.767951,106.648287
128,Nam Ky Khoi Nghia / Phan Xich Long,10.753191,106.656772
129,Nguyen Tat Thanh Terminal,10.770154,106.651825
130,Cach Mang Thang Tam / Hoang Van Thu,10.771727,106.660184
131,Cong Hoa / Ton That Thuyet,10.764858,106.654064
132,Le Van Viet / Co Bac,10.750545,106.646360
133,Le Hong Phong Circle,10.753417,106.657771
134,Ton Duc Thang Intersection,10.759092,106.653946
135,Le Van Sy / Nguyen Van Cu,10.757233,106.650675
136,Hang Xanh Junction Terminal 136,10.757233,106.653627
137,Lac Long Quan Crossing,10.760166,106.660736
138,Bau Cat Bridge,10.754693,106.638354
139,Saigon Pearl Intersection 139,10.751786,106.639316
140,Vo Van Tan Junction,10.751163,106.641127
141,Hoang Van Thu Circle,10.765111,106.661049
142,Nguyen Tat Thanh / Ngo Duc Ke,10.753306,106.658481
143,Dong Khoi / Hung Vuong #1,10.752319,106.655097
144,Nguyen Thi Dieu / Ut Tich,10.760598,106.644291
145,Ngo Duc Ke Bridge,10.760255,106.654272
146,Tao Dan Park Circle 146,10.774669,106.658486
147,Dam Sen Park Crossing 147,10.766083,106.664771
148,Hoang Dieu / Phan Van Han,10.760030,106.658517
149,Truong Chinh Junction,10.757068,106.673851
150,Nguyen Tat Thanh / Nguyen Xien,10.754979,106.657072
151,Au Co Station,10.761828,106.654782
152,Dam Sen Park Overpass 152,10.770769,106.658355
153,Le Thanh Ton / Ho Tung Mau,10.759220,106.656052
154,Bau Cat / Tay Thanh,10.750194,106.659819
155,Le Loi / Truong Chinh,10.765491,106.643140
156,Bui Vien Terminal,10.756874,106.658243
157,Pham Viet Chanh / Nguyen Xien,10.772576,106.651351
158,Gia Dinh Park Intersection 158,10.759361,106.647157
159,Le Trong Tan / Nguyen Xien,10.757346,106.656324
160,Ton That Thuyet / Phan Van Tri,10.761553,106.650791
161,Ho Tung Mau Underpass,10.770377,106.651301
162,Quang Trung Square,10.758458,106.665272
163,Nguyen Van Linh / Co Bac,10.752961,106.658159
164,Thu Thiem Station 164,10.766305,106.666588
165,Cach Mang Thang Tam / Phan Van Han,10.757597,106.641086
166,Xo Viet Nghe Tinh Crossing,10.765709,106.654213
167,Le Van Tam Park Junction 167,10.767717,106.648999
168,District 3 Park Crossing 168,10.760238,106.647030
169,Ben Van Don / Nguyen Dinh Chieu,10.740934,106.659146
170,Co Bac Corner,10.770991,106.642568
171,Saigon Pearl Junction 171,10.749965,106.643168
172,An Phu East Intersection 172,10.757324,106.651187
173,Hong Bang / Ton Duc Thang,10.761480,106.646591
174,Pham Viet Chanh Corner,10.763670,106.653725
175,Tan Son Nhat Gate Overpass 175,10.758484,106.658301
176,Co Bac / Tan Ky Tan Quy,10.762943,106.650414
177,Thu Thiem Terminal 177,10.757825,106.646553
178,Le Van Tam Park Circle 178,10.755907,106.648361
179,Opera House Bridge 179,10.759593,106.650910
180,Le Van Tam Park Circle 180,10.755434,106.674618
181,Binh Tan West Station 181,10.764127,106.662611
182,Pham Viet Chanh Junction,10.752241,106.650556
183,Hoang Van Thu / Nam Ky Khoi Nghia,10.773264,106.653505
184,Ho Tung Mau Intersection,10.772850,106.648080
185,Bay Hien Junction Circle 185,10.755822,106.650478
186,Tan Binh Plaza Overpass 186,10.756050,106.643637
187,Tran Phu / Hai Ba Trung,10.770865,106.661569
188,Pham Viet Chanh / Nguyen Binh Khiem,10.750254,106.648897
189,Nguyen Van Linh / Le Lai,10.819717,106.707293
190,Phan Xich Long Terminal,10.802427,106.708855
191,Bui Vien Terminal #1,10.826346,106.710903
192,Ben Van Don Market,10.824083,106.711246
193,Pham Van Dong / De Tham,10.810387,106.722831
194,Phu Lam Roundabout Station 194,10.808316,106.715616
195,Nguyen Thi Dieu / Luy Ban Bich,10.828142,106.695203
196,Bay Hien Junction Intersection 196,10.836203,106.714866
197,Thanh Da Island Overpass 197,10.812981,106.703170
198,Tran Quoc Thao Terminal,10.816114,106.714656
199,Notre Dame Area Terminal 199,10.824158,106.716165
200,Saigon Pearl Station 200,10.806328,106.726424
201,Ton Duc Thang Terminal,10.808803,106.705543
202,Yersin / Dien Bien Phu,10.805652,106.699692
203,Ton Duc Thang Overpass,10.801405,106.719097
204,District 1 Hub Station 204,10.808212,106.725021
205,Lac Long Quan Crossing #1,10.816394,106.732997
206,Saigon Central Junction 206,10.813823,106.702481
207,Hoang Van Thu / Truong Sa,10.821165,106.706446
208,Dien Bien Phu / Nguyen Thi Dieu,10.832168,106.717955
209,Nguyen Hue Circle,10.817654,106.716245
210,Phan Xich Long / Nguyen Van Cu,10.822612,106.708789
211,Pham Hong Thai / Le Van Sy,10.832169,106.722491
212,Le Thanh Ton / Ton That Thuyet,10.818585,106.711508
213,City Hall Market 213,10.806735,106.710104
214,Nguyen Son / Dong Khoi,10.812497,106.707393
215,Thanh Da Island Terminal 215,10.817301,106.694937
216,Nguyen Tat Thanh Station,10.818545,106.710687
217,Vo Van Tan Crossing,10.816166,106.703715
218,Saigon Zoo Area Station 218,10.827651,106.720239
219,Hang Xanh Junction Station 219,10.829628,106.711932
220,Truong Chinh Underpass,10.829901,106.719527
221,Hoang Dieu Corner,10.825425,106.705918
222,Le Quy Don Station,10.823568,106.705131
223,Luy Ban Bich Crossing,10.817446,106.717933
224,City Hall Square 224,10.822635,106.714097
225,Reunification Palace Overpass 225,10.809824,106.708577
226,Turtle Lake Underpass 226,10.825171,106.717456
227,Pham Ngu Lao / Ut Tich,10.826043,106.714357
228,Thu Duc North Corner 228,10.815162,106.712048
229,Ut Tich Intersection,10.824115,106.705940
230,Tan Ky Tan Quy Bridge,10.825232,106.697800
231,District 4 Port Junction 231,10.815161,106.703172
232,Phan Van Tri / Nguyen Thai Hoc,10.825071,106.723553
233,War Museum Area Crossing 233,10.835939,106.712884
234,Do Xuan Hop / Dien Bien Phu,10.826914,106.721078
235,Nguyen Phi Khanh / Nguyen Binh Khiem,10.813529,106.718437
236,Nam Ky Khoi Nghia / Cach Mang Thang Tam,10.821534,106.702052
237,District 4 Port Terminal 237,10.825893,106.721535
238,District 4 Port Intersection 238,10.814948,106.704415
239,An Phu East Overpass 239,10.819917,106.708333
240,Le Trong Tan / Nguyen Thi Minh Khai,10.818582,106.710148
241,Mac Thi Buoi / Phan Xich Long,10.826563,106.712591
242,Turtle Lake Square 242,10.818803,106.716185
243,Cong Hoa / Pham Hong Thai,10.826586,106.719422
244,Tran Hung Dao / Lac Long Quan,10.834106,106.719228
245,Tan Son Nhat Gate Station 245,10.833806,106.704694
246,Tran Hung Dao / Nguyen Binh Khiem,10.817701,106.704212
247,City Hall Crossing 247,10.828954,106.729399
248,War Museum Area Market 248,10.816306,106.713730
249,Vo Thi Sau Corner,10.834036,106.719936
250,Starlight Bridge Market 250,10.820376,106.709128
251,Nguyen Trai / Le Van Sy,10.824574,106.725256
252,Cach Mang Thang Tam / Vo Van Tan,10.824708,106.715967
253,Tan Son Nhat Gate Bridge 253,10.825882,106.724620
254,Bay Hien Junction Corner 254,10.802554,106.717997
255,Le Duan / Luy Ban Bich,10.827188,106.703799
256,Nguyen Thi Minh Khai / Pham Hong Thai,10.813444,106.714678
257,District 1 Hub Corner 257,10.812905,106.711946
258,Ly Tu Trong Bridge,10.821365,106.709479
259,Cho Lon Terminal 259,10.813251,106.707872
260,Tay Thanh / Luy Ban Bich,10.828558,106.706630
261,Reunification Palace Underpass 261,10.819293,106.637781
262,Tran Phu / Do Xuan Hop,10.849365,106.643782
263,Ho Tung Mau / Co Giang,10.834759,106.637284
264,Reunification Palace Crossing 264,10.833306,106.641898
265,Phan Xich Long / Tay Thanh,10.834507,106.646922
266,District 3 Park Corner 266,10.844454,106.632805
267,Tan Binh Plaza Bridge 267,10.835096,106.648815
268,Reunification Palace Square 268,10.838554,106.634700
269,Do Xuan Hop Crossing,10.832181,106.624774
270,Le Lai / Nguyen Phi Khanh #1,10.834312,106.631288
271,Quang Trung Intersection,10.841771,106.642984
272,Ton Duc Thang / Bui Dinh Tuy,10.840054,106.642260
273,Hai Ba Trung Overpass,10.841401,106.622895
274,Co Bac / Cach Mang Thang Tam,10.832341,106.649618
275,Ba Thang Hai Underpass,10.847322,106.650811
276,Binh Tan West Terminal 276,10.831808,106.641095
277,Nguyen Thi Dieu Market,10.829147,106.629395
278,Phan Dang Luu Corner,10.840827,106.658674
279,An Phu East Station 279,10.834887,106.628592
280,Hoang Sa / Tay Thanh,10.831084,106.637802
281,City Hall Market 281,10.843330,106.642591
282,Go Vap Junction Circle 282,10.850967,106.632894
283,Binh Quoi Village Square 283,10.843502,106.640333
284,An Duong Vuong Corner,10.841125,106.634891
285,Yersin / Le Van Sy,10.846919,106.634450
286,Le Quy Don / Ton Duc Thang,10.836923,106.640119
287,Mac Thi Buoi Junction,10.845575,106.628135
288,Tan Binh Plaza Underpass 288,10.835957,106.652606
289,Tran Hung Dao Circle,10.828564,106.640087
290,An Phu East Intersection 290,10.849612,106.633933
291,Bay Hien Junction Terminal 291,10.838624,106.640329
292,Saigon Pearl Junction 292,10.853474,106.643810
293,Pham Viet Chanh Station,10.832344,106.630237
294,District 7 South Overpass 294,10.846877,106.638028
295,Do Xuan Hop / Nguyen Van Linh,10.834627,106.629472
296,Notre Dame Area Terminal 296,10.815571,106.636856
297,Tran Hung Dao / Pham Hong Thai,10.847034,106.640092
298,Bau Cat Crossing,10.841178,106.630812
299,Dong Khoi / Pham Hong Thai,10.841171,106.625032
300,Au Co / Tan Hoa Dong,10.825362,106.633774
301,Lac Long Quan / Hai Ba Trung,10.829527,106.627192
302,Nguyen Xien Station,10.840145,106.640178
303,Phan Dang Luu / Ho Tung Mau,10.849403,106.637271
304,Xo Viet Nghe Tinh Circle,10.830735,106.648862
305,Tran Phu Station,10.844852,106.643356
306,City Hall Market 306,10.836684,106.642315
307,Turtle Lake Bridge 307,10.839066,106.641258
308,Pham Ngu Lao / Nguyen Dinh Chieu,10.844459,106.637799
309,Turtle Lake Square 309,10.836265,106.643865
310,Pham Hong Thai / Nguyen Son,10.836663,106.631035
311,Nguyen Thi Minh Khai Crossing,10.845824,106.637880
312,District 5 Market Junction 312,10.835533,106.630767
313,Hai Ba Trung Square,10.846241,106.646506
314,Co Giang / Hoang Van Thu,10.852084,106.643649
315,City Hall Corner 315,10.843937,106.638887
316,Le Lai / Ben Van Don,10.836411,106.639058
317,Pasteur Underpass,10.836869,106.643899
318,De Tham Circle,10.843193,106.646846
319,Nguyen Son / Ho Tung Mau,10.841365,106.625624
320,Mac Thi Buoi / Vo Van Tan,10.829400,106.620000
321,Binh Thanh Gate Overpass 321,10.823067,106.643035
322,Phu Nhuan Center Market 322,10.860000,106.633200
323,Hong Bang Square,10.823148,106.633540
324,Hoang Sa / Mac Thi Buoi,10.842001,106.628773
325,Ut Tich / Yersin,10.840192,106.647260
326,Ly Tu Trong / Le Duan,10.817053,106.642599
327,Do Xuan Hop Station,10.827905,106.667407
328,Tao Dan Park Terminal 328,10.858588,106.647535
329,Truong Chinh Overpass,10.836288,106.631299
330,Bui Dinh Tuy / Nguyen Thi Minh Khai,10.827771,106.630790
331,Ly Chinh Thang / Nguyen Binh Khiem,10.844145,106.629524
332,Le Van Viet Circle,10.844659,106.635674
333,Landmark Tower Circle 333,10.842860,106.632948
334,Binh Quoi Village Overpass 334,10.844214,106.642764
335,Tan Ky Tan Quy / Tay Thanh,10.848744,106.654584
336,Pasteur / Nguyen Dinh Chieu,10.829915,106.653430
337,Phu My Hung Bridge 337,10.850408,106.641183
338,Saigon Pearl Circle 338,10.829528,106.643669
339,Nguyen Tat Thanh / Tran Quoc Thao,10.835153,106.632675
340,Ton That Thuyet / Tan Hoa Dong,10.827711,106.641471
341,Le Quy Don / Nguyen Thai Hoc,10.832301,106.639571
342,Cong Hoa / Pham Ngu Lao,10.843599,106.637302
343,Nguyen Van Troi / Nguyen Trai,10.835642,106.646089
344,Nguyen Son / Ton That Thuyet,10.844850,106.641740
345,Nguyen Binh Khiem / Ut Tich,10.839589,106.653972
346,Nguyen Xien / Au Co,10.838478,106.632849
347,Ben Van Don / Bui Dinh Tuy,10.832543,106.638008
348,District 1 Hub Junction 348,10.833690,106.639531
349,Luy Ban Bich Circle,10.837302,106.648539
350,Tan Phu North Underpass 350,10.824319,106.634411
351,Nam Ky Khoi Nghia / Hoang Van Thu,10.834009,106.644026
352,Co Giang / Bui Dinh Tuy,10.832389,106.635079
353,Tan Ky Tan Quy Overpass,10.829795,106.641056
354,Yersin / Phan Van Tri,10.836197,106.635257
355,Xo Viet Nghe Tinh / Luy Ban Bich,10.837548,106.639286
356,Le Quy Don Square,10.842852,106.635223
357,Au Co Corner,10.830751,106.644855
358,Tan Son Nhat Gate Circle 358,10.829873,106.637515
359,Bui Vien / Ton That Thuyet,10.837967,106.638185
360,Bau Cat Junction,10.827063,106.630785
361,Phu Lam Roundabout Bridge 361,10.834259,106.634359
362,Starlight Bridge Overpass 362,10.839780,106.640526
363,Nguyen Van Troi / Hai Ba Trung,10.836928,106.624370
364,Tran Phu / Le Quy Don,10.828261,106.632484
365,Bui Dinh Tuy / Nguyen Son,10.832210,106.641988
366,Nguyen Thi Minh Khai Underpass,10.853677,106.630174
367,Tan Hoa Dong / Do Xuan Hop,10.842941,106.642114
368,Saigon Pearl Corner 368,10.825079,106.651965
369,Huynh Van Banh Bridge,10.827910,106.634512
370,Tran Quoc Thao / Vo Thi Sau,10.819420,106.639948
371,Truong Sa Underpass,10.860000,106.629789
372,Nguyen Cong Tru / Ho Tung Mau,10.837465,106.631245
373,Ben Van Don / Nguyen Thai Hoc,10.788828,106.639086
374,Ho Tung Mau / Nguyen Dinh Chieu,10.794035,106.626687
375,Tan Hoa Dong / Dien Bien Phu,10.775241,106.637864
376,Ngo Duc Ke Square,10.783114,106.640257
377,Nam Ky Khoi Nghia / Do Xuan Hop,10.790333,106.639086
378,Xo Viet Nghe Tinh / Luy Ban Bich #1,10.781049,106.636511
379,Truong Chinh / Ly Chinh Thang,10.791243,106.638863
380,Tan Hoa Dong Overpass,10.764565,106.641083
381,Nguyen Thi Minh Khai / Ly Tu Trong,10.786601,106.650344
382,Hai Ba Trung Square #1,10.776812,106.626000
383,Hai Ba Trung Station,10.766894,106.638280
384,Pham Viet Chanh Junction #1,10.781376,106.625763
385,Xo Viet Nghe Tinh / Ho Tung Mau,10.790509,106.631358
386,Tan Binh Plaza Market 386,10.769174,106.633996
387,Ly Chinh Thang / Lac Long Quan,10.775031,106.631799
388,Phan Van Tri / Pham Viet Chanh,10.772563,106.620529
389,Hong Bang / Nguyen Tat Thanh,10.767902,106.625193
390,Ton Duc Thang / Tran Quang Khai,10.784640,106.622231
391,Nguyen Hue Circle #1,10.789217,106.629708
392,Xo Viet Nghe Tinh / Tran Quoc Thao,10.773685,106.636569
393,Le Lai / Le Van Sy,10.771097,106.625587
394,Nguyen Tat Thanh / Bui Dinh Tuy,10.783873,106.632281
395,De Tham Overpass,10.794980,106.622981
396,Thu Thiem Square 396,10.785944,106.627390
397,Yersin Station,10.771431,106.631959
398,Dien Bien Phu Intersection,10.774907,106.620000
399,Do Xuan Hop Terminal,10.775598,106.621001
400,Bui Vien Junction,10.772699,106.629419
401,Pham Van Dong / Cach Mang Thang Tam,10.788368,106.620000
402,Phu My Hung Underpass 402,10.788197,106.644251
403,District 1 Hub Terminal 403,10.777135,106.629011
404,Landmark Tower Terminal 404,10.785763,106.636866
405,Phan Xich Long / Nguyen Hue,10.776959,106.624680
406,Nguyen Thai Hoc / Le Duan #1,10.779885,106.620245
407,Luy Ban Bich Junction,10.777436,106.630033
408,Ton That Thuyet / Yersin,10.778998,106.635658
409,Co Bac Station,10.788009,106.630402
410,Mac Thi Buoi Overpass,10.798234,106.640726
411,Ben Van Don Market #1,10.782730,106.627661
412,Tran Hung Dao Circle #1,10.795626,106.646682
413,Notre Dame Area Intersection 413,10.767756,106.633691
414,Bui Vien / Hai Ba Trung,10.780277,106.638128
415,Tran Hung Dao Intersection,10.783207,106.622990
416,Le Trong Tan / Nam Ky Khoi Nghia,10.781167,106.634305
417,Saigon Pearl Intersection 417,10.780242,106.633160
418,Pham Viet Chanh / Nguyen Thi Dieu,10.780543,106.620000
419,Le Trong Tan / Nguyen Binh Khiem,10.785373,106.620000
420,Le Van Viet Intersection,10.781506,106.647053
421,Phu Lam Roundabout Underpass 421,10.774668,106.634071
422,Dam Sen Park Junction 422,10.789695,106.624837
423,Starlight Bridge Corner 423,10.798941,106.627452
424,Tran Quang Khai / Pham Van Dong,10.777450,106.623021
425,Nguyen Trai / Au Co,10.764812,106.633332
426,Cong Hoa Market,10.789006,106.625505
427,Nguyen Dinh Chieu / An Duong Vuong,10.784134,106.635208
428,Phan Dang Luu Junction,10.782182,106.627867
429,Phu Nhuan Center Intersection 429,10.778776,106.642647
430,Phu My Hung Terminal 430,10.783747,106.620728
431,Le Loi / Dien Bien Phu,10.784616,106.647613
432,Tan Hoa Dong / Nguyen Van Troi,10.799053,106.622882
433,Le Van Sy / Truong Chinh,10.775981,106.620000
434,Opera House Circle 434,10.777324,106.636631
435,Thu Duc North Underpass 435,10.779466,106.640323
436,Yersin Corner,10.765134,106.633671
437,Nguyen Trai / Tran Hung Dao,10.771343,106.636050
438,Jade Emperor Area Circle 438,10.778898,106.649404
439,Nguyen Van Troi / Phan Van Han,10.784281,106.636608
440,Quang Trung / Lac Long Quan,10.761948,106.624755
441,Nguyen Van Linh / Quang Trung,10.787161,106.643158
442,Nguyen Thi Minh Khai Market,10.786921,106.646120
443,Nam Ky Khoi Nghia Junction,10.795307,106.634022
444,Cach Mang Thang Tam / Le Loi,10.767052,106.638801
445,Hong Bang / Nguyen Son,10.781886,106.639412
446,Pham Van Dong / Truong Chinh,10.790181,106.624636
447,Pham Van Dong Circle,10.778915,106.631531
448,Pham Ngu Lao Crossing,10.773505,106.620000
449,Tan Phu North Corner 449,10.774291,106.629848
450,Nguyen Tat Thanh / Lac Long Quan,10.779288,106.638752
451,Nguyen Dinh Chieu / Hai Ba Trung,10.757823,106.621087
452,District 1 Hub Overpass 452,10.786665,106.635085
453,Turtle Lake Overpass 453,10.785059,106.631046
454,Ton Duc Thang Market,10.782377,106.620660
455,Hoang Van Thu Terminal,10.785213,106.627943
456,District 4 Port Market 456,10.777761,106.648764
457,Le Quy Don Junction,10.752642,106.689871
458,Ben Van Don Crossing,10.764878,106.688124
459,Notre Dame Area Overpass 459,10.751408,106.700492
460,Mac Thi Buoi Underpass,10.760266,106.686327
461,Nam Ky Khoi Nghia Crossing #1,10.753024,106.681369
462,Nguyen Son / Le Trong Tan,10.740446,106.696559
463,Ngo Duc Ke / An Duong Vuong,10.743564,106.699009
464,Hung Vuong Square,10.747059,106.691117
465,Tan Ky Tan Quy / Pham Viet Chanh,10.749520,106.680042
466,Cach Mang Thang Tam / Co Bac,10.758308,106.678604
467,Le Quy Don Corner,10.751844,106.679661
468,Le Lai / Ngo Duc Ke,10.755189,106.691181
469,Landmark Tower Market 469,10.757286,106.692723
470,Truong Chinh / Ly Tu Trong,10.750824,106.690383
471,Le Loi Circle,10.743053,106.682658
472,Cong Hoa Intersection,10.742634,106.697842
473,Mac Thi Buoi / Ngo Duc Ke,10.750161,106.688544
474,Hung Vuong / Nguyen Cong Tru,10.751604,106.699524
475,Phan Xich Long / Nguyen Van Troi,10.746451,106.695054
476,Nguyen Hue / Ben Van Don,10.747970,106.684751
477,Xo Viet Nghe Tinh Terminal,10.749050,106.700354
478,Le Trong Tan Square,10.747083,106.703347
479,Gia Dinh Park Corner 479,10.751159,106.701011
480,Hong Bang / Quang Trung,10.758089,106.697919
481,Nguyen Cong Tru / Ben Van Don,10.768226,106.687866
482,Nguyen Van Linh / Tran Quang Khai,10.742278,106.704591
483,Au Co Underpass,10.750342,106.681480
484,Le Duan Station,10.758136,106.704519
485,Phan Xich Long / Cach Mang Thang Tam,10.752511,106.686798
486,Le Trong Tan / Tan Hoa Dong,10.751490,106.676896
487,Ton That Thuyet Market,10.745949,106.685788
488,Pham Van Dong Bridge,10.775021,106.695490
489,Pham Hong Thai Square,10.752370,106.688102
490,Nguyen Tat Thanh Corner,10.753096,106.688754
491,Huynh Van Banh / Vo Thi Sau,10.762841,106.688860
492,Tan Son Nhat Gate Intersection 492,10.744894,106.690026
493,Au Co Underpass #1,10.747037,106.693338
494,Pham Ngu Lao / Pham Viet Chanh,10.747190,106.690653
495,Nguyen Trai / Nguyen Thai Hoc,10.736894,106.700970
496,Tan Hoa Dong / Nguyen Thai Hoc,10.751205,106.698835
497,Saigon Zoo Area Crossing 497,10.746054,106.691957
498,Phan Van Tri / Pham Ngu Lao #1,10.750019,106.704538
499,Ly Chinh Thang / Xo Viet Nghe Tinh,10.760500,106.690071
500,Nguyen Tat Thanh / Bau Cat,10.735779,106.683264
501,Saigon Central Underpass 501,10.759129,106.701161
502,Notre Dame Area Junction 502,10.750550,106.687189
503,Le Duan Bridge,10.753025,106.685462
504,Nguyen Binh Khiem / Hoang Sa,10.767565,106.700353
505,Do Xuan Hop Overpass,10.748528,106.692320
506,Bui Vien / Nguyen Thai Hoc,10.751470,106.697990
507,Tran Quoc Thao / Nguyen Son,10.749256,106.697771
508,Le Van Sy / Nguyen Phi Khanh,10.744468,106.684263
509,Co Giang / Ton That Thuyet #1,10.760287,106.695860
510,Dam Sen Park Overpass 510,10.745948,106.684717
511,Nguyen Van Cu Market,10.737098,106.686499
512,An Duong Vuong / Tan Ky Tan Quy,10.757844,106.696399
513,Mac Thi Buoi / Phan Dang Luu,10.761670,106.693169
514,Dam Sen Park Station 514,10.762760,106.671768
515,Quang Trung Square #1,10.751241,106.683071
516,Pham Viet Chanh Junction #2,10.756287,106.691669
517,Lac Long Quan / Hoang Van Thu,10.753003,106.700490
518,Go Vap Junction Bridge 518,10.753908,106.677057
519,Le Lai Market,10.764960,106.699762
520,Nguyen Van Linh Intersection,10.755576,106.688581
521,Nguyen Van Troi Circle,10.758260,106.690436
522,Ly Tu Trong / Tran Phu,10.755995,106.689225
523,Truong Sa Underpass #1,10.757198,106.687681
524,Bau Cat Station,10.748220,106.686774
525,Truong Sa / Nguyen Thi Minh Khai,10.756755,106.694459
526,District 5 Market Corner 526,10.745627,106.686471
527,Binh Quoi Village Overpass 527,10.761147,106.689799
528,Hoang Dieu Junction,10.756268,106.686713
529,Le Thanh Ton / Nguyen Van Troi,10.770601,106.689916
530,Ben Van Don / Quang Trung,10.758828,106.696282
531,Notre Dame Area Terminal 531,10.761643,106.699493
532,Nguyen Tat Thanh Market,10.767210,106.697178
533,Lac Long Quan Terminal,10.754533,106.678351
534,Ly Tu Trong Underpass,10.754286,106.691173
535,Phu Nhuan Center Market 535,10.765731,106.688698
536,Phan Van Han Circle,10.737736,106.703262
537,Tan Binh Plaza Bridge 537,10.751661,106.696536
538,Nam Ky Khoi Nghia Junction #1,10.763007,106.679397
539,Go Vap Junction Square 539,10.765899,106.698875
540,Tan Binh Plaza Overpass 540,10.759741,106.689273
541,Ly Tu Trong Overpass,10.749331,106.706114
542,District 5 Market Junction 542,10.752426,106.693226
543,Thu Thiem Station 543,10.749116,106.694816
544,Tan Hoa Dong / Vo Van Tan,10.747566,106.680333
545,Ben Thanh Junction 545,10.758399,106.694917
546,Le Hong Phong Underpass,10.749605,106.676782
547,Pham Ngu Lao / Le Quy Don,10.756617,106.692939
548,Mac Thi Buoi / Nguyen Trai,10.750006,106.695663
549,District 5 Market Terminal 549,10.763909,106.694966
550,Hoang Dieu Bridge,10.751260,106.695131
551,Ton Duc Thang / Mac Thi Buoi,10.748392,106.676055
552,Le Hong Phong / Le Quy Don,10.754712,106.679999
553,Binh Tan West Market 553,10.756089,106.684838
554,Pasteur / Tran Quoc Thao,10.744252,106.683095
555,Ben Van Don / Pham Viet Chanh,10.757569,106.701182
556,Le Van Sy Terminal,10.746048,106.679549
557,Phu Nhuan Center Market 557,10.750069,106.694580
558,Le Quy Don / Le Thanh Ton,10.755502,106.689872
559,Saigon Pearl Overpass 559,10.742964,106.700652
560,Vo Van Tan Junction #1,10.758759,106.698661
561,Nguyen Thi Minh Khai / Ben Van Don,10.753411,106.689979
562,Jade Emperor Area Station 562,10.743299,106.690207
563,Bay Hien Junction Square 563,10.753559,106.687507
564,Phu My Hung Square 564,10.753365,106.697463
565,Phu Nhuan Center Circle 565,10.746792,106.688870
566,Nguyen Thi Minh Khai Intersection,10.750446,106.678397
567,Hang Xanh Junction Junction 567,10.761867,106.695079
568,De Tham Junction,10.749757,106.702935
569,Nguyen Thai Hoc / Le Van Viet,10.751296,106.678668
570,Yersin / Le Thanh Ton,10.739760,106.689068
571,De Tham Junction #1,10.754526,106.674408
572,Tan Phu North Underpass 572,10.750235,106.697968
573,Hoang Van Thu / Ba Thang Hai,10.744985,106.690906
574,Ut Tich / Bui Vien,10.750411,106.695211
575,Le Loi / Nguyen Van Troi,10.755839,106.700127
576,Nguyen Van Cu Junction,10.737639,106.654222
577,Ton That Thuyet Intersection,10.720000,106.646276
578,Ngo Duc Ke Crossing,10.726724,106.659524
579,District 1 Hub Square 579,10.726710,106.650301
580,Nguyen Tat Thanh / Le Duan,10.731959,106.661552
581,Nguyen Phi Khanh Corner,10.741827,106.640854
582,Pham Viet Chanh / Hoang Van Thu,10.737911,106.656618
583,Yersin / Au Co,10.733167,106.639238
584,Nguyen Van Linh Intersection #1,10.757881,106.647133
585,Nguyen Van Linh / Nguyen Thai Hoc,10.741205,106.667116
586,Xo Viet Nghe Tinh / Nguyen Hue,10.722263,106.642777
587,Nguyen Phi Khanh Crossing,10.730779,106.644293
588,District 1 Hub Square 588,10.736693,106.674010
589,Le Van Viet Station,10.729500,106.648620
590,Nguyen Dinh Chieu Bridge,10.727996,106.644696
591,Vo Van Tan Bridge,10.733877,106.654474
592,Le Van Sy Circle #2,10.722560,106.648520
593,Nguyen Binh Khiem Corner,10.729863,106.658996
594,Mac Thi Buoi Bridge,10.724763,106.653760
595,Saigon Zoo Area Station 595,10.733272,106.654445
596,An Duong Vuong Circle,10.735813,106.657237
597,Tran Quoc Thao / Tay Thanh,10.720000,106.655626
598,Ly Tu Trong / Nguyen Van Troi,10.745068,106.655867
599,Tran Quoc Thao / Huynh Van Banh,10.738222,106.650468
600,An Duong Vuong Market,10.732451,106.647581
601,Tan Binh Plaza Crossing 601,10.730270,106.645988
602,Le Thanh Ton Intersection,10.745371,106.653185
603,Binh Thanh Gate Bridge 603,10.733791,106.645146
604,Le Duan / Hoang Sa,10.720000,106.642850
605,Xo Viet Nghe Tinh / De Tham,10.737429,106.647074
606,Ut Tich / Hung Vuong,10.738920,106.654411
607,Dien Bien Phu / Tran Quang Khai,10.742266,106.654288
608,Nguyen Son / Tan Ky Tan Quy,10.728984,106.660641
609,Landmark Tower Terminal 609,10.721776,106.644309
610,Hoang Sa / Do Xuan Hop,10.736355,106.654477
611,Saigon Central Station 611,10.730481,106.677680
612,Dam Sen Park Corner 612,10.731847,106.644658
613,Tran Quang Khai / Pasteur,10.738408,106.647124
614,Nguyen Cong Tru Junction,10.727984,106.657160
615,Tan Son Nhi / Nguyen Thi Dieu,10.733599,106.643623
616,District 4 Port Market 616,10.733969,106.651455
617,Vo Thi Sau / Ut Tich,10.737569,106.635720
618,Nguyen Van Cu / Le Van Sy,10.738490,106.640307
619,Phu Lam Roundabout Junction 619,10.720000,106.644095
620,Phan Van Han Market,10.744779,106.647199
621,Nguyen Thi Dieu / Tay Thanh,10.726975,106.660711
622,Le Thanh Ton / Phan Van Tri,10.748231,106.652130
623,Nguyen Binh Khiem Junction,10.726646,106.634513
624,Bui Vien Market,10.740876,106.653513
625,Ben Van Don / Au Co,10.743376,106.636434
626,Ly Chinh Thang / Hung Vuong,10.735803,106.656075
627,District 7 South Underpass 627,10.735632,106.632402
628,Pham Hong Thai Intersection,10.742411,106.649653
629,Pham Viet Chanh / Le Thanh Ton,10.722911,106.639390
630,Ut Tich Station,10.730554,106.652485
631,District 7 South Bridge 631,10.738468,106.640982
632,Tan Son Nhat Gate Crossing 632,10.724295,106.665290
633,Le Van Sy Corner,10.734404,106.650347
634,Ly Tu Trong Underpass #1,10.735164,106.651518
635,Le Loi / Huynh Van Banh,10.724115,106.640720
636,Pham Ngu Lao / Nguyen Hue,10.733425,106.663959
637,Notre Dame Area Corner 637,10.726120,106.654388
638,Tan Son Nhat Gate Overpass 638,10.726797,106.650998
639,Cho Lon Circle 639,10.730640,106.646341
640,Phan Van Tri / Ba Thang Hai,10.736518,106.652837
641,Ly Tu Trong / Phan Van Tri,10.733955,106.648986
642,Saigon Central Station 642,10.721181,106.645908
643,Truong Chinh / Nguyen Van Linh,10.734709,106.655278
644,Nam Ky Khoi Nghia / Ben Van Don,10.729721,106.658529
645,Le Lai / Nguyen Hue,10.720000,106.645380
646,Hang Xanh Junction Terminal 646,10.724340,106.654990
647,Pham Viet Chanh / Nguyen Dinh Chieu,10.730912,106.653790
648,Luy Ban Bich Terminal,10.726434,106.652709
649,Notre Dame Area Square 649,10.735301,106.648202
650,Dong Khoi / Huynh Van Banh,10.724939,106.657735
651,Hoang Van Thu Junction,10.724531,106.654366
652,Nguyen Thai Hoc / Nguyen Van Linh,10.737534,106.662099
653,Nguyen Thi Minh Khai / Co Giang,10.720000,106.658972
654,Gia Dinh Park Bridge 654,10.733815,106.644479
655,Hai Ba Trung / Bui Dinh Tuy,10.737041,106.645894
656,Bay Hien Junction Square 656,10.721645,106.647878
657,Ba Thang Hai / Dien Bien Phu,10.740139,106.661285
658,Turtle Lake Intersection 658,10.731836,106.648176
659,Huynh Van Banh Corner,10.741581,106.651861
660,Co Giang / Cong Hoa,10.745360,106.642630
661,Lac Long Quan / Le Loi,10.724663,106.656326
662,Jade Emperor Area Crossing 662,10.732887,106.641172
663,Thu Duc North Circle 663,10.747256,106.645315
664,Huynh Van Banh Station,10.819974,106.683473
665,District 7 South Circle 665,10.803016,106.687050
666,War Museum Area Junction 666,10.799783,106.702019
667,District 1 Hub Underpass 667,10.795845,106.705674
668,Phan Van Tri / Tran Quoc Thao,10.802635,106.696644
669,Ton Duc Thang Intersection #1,10.803135,106.709938
670,Saigon Zoo Area Circle 670,10.823258,106.711839
671,Tran Phu / Dien Bien Phu,10.807437,106.684856
672,Starlight Bridge Corner 672,10.815886,106.691429
673,Nguyen Phi Khanh / Bui Dinh Tuy,10.813040,106.686978
674,Tan Son Nhat Gate Junction 674,10.797442,106.703610
675,Nguyen Thi Minh Khai / Nguyen Van Troi,10.816410,106.710145
676,Hoang Sa / Nguyen Cong Tru,10.811407,106.696194
677,De Tham / Pasteur,10.802835,106.702241
678,Gia Dinh Park Bridge 678,10.809355,106.704918
679,Huynh Van Banh Underpass,10.801915,106.693333
680,Nam Ky Khoi Nghia / Ly Chinh Thang,10.810580,106.692620
681,Vo Thi Sau / Truong Sa,10.817334,106.684602
682,Le Loi / Luy Ban Bich,10.807903,106.703815
683,Ben Thanh Intersection 683,10.818697,106.689567
684,Nguyen Cong Tru / Le Hong Phong,10.808668,106.710128
685,Phu My Hung Terminal 685,10.821262,106.686122
686,Phu Lam Roundabout Crossing 686,10.805763,106.704848
687,Yersin Market,10.839772,106.697090
688,Pham Ngu Lao / Tan Hoa Dong,10.802294,106.686901
689,District 4 Port Circle 689,10.830866,106.704984
690,District 10 Center Square 690,10.797912,106.679269
691,Le Trong Tan / Nguyen Tat Thanh,10.802989,106.695019
692,Phan Van Han Circle #1,10.802442,106.685434
693,Hai Ba Trung / Tan Son Nhi,10.808392,106.703979
694,Vo Thi Sau / Pham Van Dong,10.806171,106.685599
695,Pham Hong Thai Market,10.803016,106.688719
696,Landmark Tower Square 696,10.807371,106.700305
697,Cong Hoa Square,10.806434,106.704348
698,Thu Thiem Corner 698,10.825093,106.690048
699,Reunification Palace Corner 699,10.811588,106.711640
700,Luy Ban Bich Junction #1,10.808443,106.702324
701,Vo Van Tan Terminal,10.815958,106.687781
702,Co Bac Market,10.816126,106.689628
703,Mac Thi Buoi Intersection,10.808087,106.698208
704,Lac Long Quan Square,10.795898,106.715388
705,Quang Trung Corner,10.803746,106.707262
706,Ben Thanh Terminal 706,10.805493,106.692002
707,Ly Chinh Thang / Quang Trung,10.806891,106.709054
708,Hung Vuong / Hong Bang,10.811939,106.682085
709,Ben Thanh Junction 709,10.801235,106.699297
710,Nguyen Binh Khiem Market,10.796218,106.692933
711,Binh Tan West Intersection 711,10.813271,106.706857
712,Co Giang / Bui Dinh Tuy #1,10.806331,106.688770
713,Tran Quoc Thao Circle #1,10.804780,106.693105
714,Turtle Lake Overpass 714,10.799558,106.698314
715,Pham Hong Thai Intersection #1,10.816212,106.695454
716,Tran Hung Dao Intersection #1,10.817770,106.710661
717,Tran Hung Dao / Au Co,10.812606,106.718525
718,Hai Ba Trung Station #1,10.804786,106.695543
719,District 1 Hub Bridge 719,10.813276,106.691357
720,Saigon Central Junction 720,10.820662,106.695269
721,Truong Chinh / Phan Xich Long,10.805815,106.687943
722,Ben Thanh Circle 722,10.804333,106.696401
723,Bay Hien Junction Bridge 723,10.805641,106.697423
724,Nguyen Xien Underpass,10.806346,106.687724
725,Phan Van Han Intersection,10.804067,106.691268
726,Hoang Sa Corner,10.798136,106.686883
727,Phan Van Han / Truong Sa,10.806955,106.689253
728,Le Loi / Ly Tu Trong,10.805418,106.687186
729,District 3 Park Crossing 729,10.821551,106.687272
730,Phan Xich Long Overpass,10.809468,106.692557
731,Au Co / Nam Ky Khoi Nghia,10.811713,106.719442
732,Pham Viet Chanh / Le Lai,10.812900,106.698572
733,Ton Duc Thang Junction,10.811092,106.689095
734,Reunification Palace Corner 734,10.813244,106.695928
735,Ly Tu Trong / Yersin,10.824597,106.683401
736,Le Van Tam Park Circle 736,10.810904,106.690996
737,Jade Emperor Area Overpass 737,10.815164,106.685153
738,Nguyen Thi Minh Khai / Ly Chinh Thang,10.812533,106.692492
739,Tan Son Nhat Gate Overpass 739,10.768774,106.711926
740,Nguyen Son Junction,10.744597,106.705414
741,Dam Sen Park Crossing 741,10.752375,106.684549
742,Le Quy Don / Le Loi,10.761337,106.695650
743,Ut Tich Underpass,10.751384,106.689692
744,Reunification Palace Market 744,10.734504,106.692473
745,Nguyen Van Troi / Tan Hoa Dong,10.742482,106.699450
746,Cong Hoa / Nguyen Son,10.747975,106.711153
747,Luy Ban Bich / Phan Van Han,10.765595,106.705110
748,Binh Tan West Corner 748,10.756927,106.698939
749,Co Bac / Nguyen Tat Thanh,10.757302,106.700768
750,Tan Son Nhat Gate Terminal 750,10.756102,106.698289
751,Phan Van Han / Tran Hung Dao,10.762773,106.706184
752,Ben Thanh Crossing 752,10.761368,106.706206
753,Binh Quoi Village Market 753,10.760111,106.681395
754,Le Lai Junction,10.757972,106.712748
755,Tan Ky Tan Quy / Le Trong Tan,10.761044,106.687149
756,Bui Vien Crossing,10.743236,106.703214
757,Hong Bang / Pham Viet Chanh,10.755107,106.695592
758,Ba Thang Hai / Phan Van Han,10.747379,106.698962
759,Pham Ngu Lao Circle,10.762849,106.711063
760,Ben Van Don Intersection,10.750820,106.697940
761,Pham Ngu Lao Station,10.741329,106.704967
762,Go Vap Junction Terminal 762,10.765626,106.704511
763,Dam Sen Park Junction 763,10.744483,106.704071
764,Tan Son Nhi Terminal,10.752297,106.700769
765,Tan Son Nhi Square,10.767175,106.694868
766,Le Trong Tan / Tay Thanh,10.754263,106.697085
767,Nguyen Van Troi Circle #1,10.738074,106.716035
768,Mac Thi Buoi / Hoang Dieu,10.748903,106.705635
769,Landmark Tower Corner 769,10.741433,106.691226
770,District 10 Center Intersection 770,10.750331,106.683050
771,Le Thanh Ton / Nguyen Van Cu,10.750064,106.696585
772,Bui Vien / Pham Hong Thai,10.742462,106.700946
773,Ton That Thuyet Overpass,10.744997,106.697213
774,Le Hong Phong / Le Loi,10.754570,106.685897
775,Nguyen Thi Minh Khai / Hoang Sa,10.752984,106.700990
776,Phan Xich Long Square,10.753281,106.715206
777,Nguyen Van Linh / Hai Ba Trung,10.761301,106.690876
778,Landmark Tower Intersection 778,10.749234,106.708060
779,Ho Tung Mau Underpass #1,10.755867,106.715217
780,Le Quy Don / Truong Chinh,10.745421,106.685544
781,Tran Phu / Vo Thi Sau,10.767229,106.705625
782,Phu Lam Roundabout Market 782,10.765387,106.694652
783,Phan Dang Luu Circle,10.754392,106.695970
784,Nguyen Van Cu / Nguyen Xien,10.733037,106.708490
785,Huynh Van Banh / Le Thanh Ton,10.756462,106.702818
786,Au Co / Cach Mang Thang Tam,10.762991,106.714362
787,Bay Hien Junction Overpass 787,10.772582,106.705812
788,Phu Nhuan Center Underpass 788,10.750311,106.714656
789,Le Duan / Bui Dinh Tuy,10.752443,106.706382
790,Opera House Intersection 790,10.760174,106.709680
791,Pham Viet Chanh / Dien Bien Phu,10.763551,106.693352
792,Landmark Tower Overpass 792,10.765342,106.697837
793,Bay Hien Junction Bridge 793,10.766653,106.701905
794,Co Bac Crossing,10.754864,106.703528
795,Le Van Viet / Yersin,10.747258,106.707802
796,An Phu East Overpass 796,10.745276,106.700391
797,Ba Thang Hai Market,10.758171,106.710236
798,Le Hong Phong / Pham Ngu Lao,10.757526,106.712181
799,Hung Vuong Overpass,10.758916,106.715695
800,Hai Ba Trung Crossing,10.754089,106.699633
801,Vo Van Tan / Ut Tich,10.759263,106.703472
802,Tao Dan Park Overpass 802,10.762429,106.685403
803,De Tham / Pham Van Dong,10.749018,106.705190
804,Tan Son Nhi / Dong Khoi,10.767537,106.701721
805,Pham Ngu Lao Circle #1,10.753832,106.698288
806,Tran Phu / Co Bac,10.756332,106.694654
807,Saigon Pearl Intersection 807,10.745476,106.708450
808,Nguyen Van Linh Circle,10.759992,106.707269
809,City Hall Junction 809,10.759099,106.700141
810,Nguyen Hue / Ut Tich,10.745165,106.697888
811,Nguyen Phi Khanh Intersection,10.746621,106.695581
812,Hoang Dieu / Nguyen Xien,10.754590,106.683947
813,Tan Phu North Intersection 813,10.757966,106.705228
814,District 1 Hub Market 814,10.763742,106.709115
815,Le Duan / Phan Xich Long,10.744968,106.703683
816,Reunification Palace Corner 816,10.765269,106.708692
817,Tan Ky Tan Quy / Le Duan,10.762865,106.709671
818,Bay Hien Junction Overpass 818,10.760439,106.697139
819,City Hall Corner 819,10.751143,106.711204
820,Hung Vuong Circle,10.749344,106.714195
821,Tan Hoa Dong Terminal,10.757080,106.697621
822,Thu Duc North Square 822,10.741769,106.705897
823,Mac Thi Buoi / Pham Van Dong,10.752757,106.698626
824,Phu Nhuan Center Junction 824,10.759073,106.713528
825,Tan Son Nhi Station,10.761397,106.692083
826,Nguyen Van Linh Terminal,10.760828,106.702667
827,Au Co / Pham Viet Chanh,10.752199,106.697511
828,Le Lai / Bui Dinh Tuy,10.761064,106.708280
829,Nguyen Son Overpass,10.760673,106.701641
830,District 7 South Bridge 830,10.759625,106.709547
831,Tan Hoa Dong Corner,10.765913,106.697529
832,Huynh Van Banh / Yersin,10.767886,106.704650
833,City Hall Station 833,10.755967,106.713077
834,Nguyen Binh Khiem / Pham Ngu Lao,10.746125,106.702916
835,Huynh Van Banh Bridge #1,10.751992,106.691943
836,City Hall Bridge 836,10.750022,106.699887
837,Notre Dame Area Intersection 837,10.746102,106.688767
838,Quang Trung Terminal,10.747351,106.700481
839,Tran Phu Square,10.755474,106.700648
840,Cach Mang Thang Tam / Tran Quang Khai,10.755981,106.710789
841,Nguyen Thi Dieu Station,10.760746,106.710319
842,Ly Chinh Thang / Hoang Dieu,10.745704,106.702306
843,District 5 Market Square 843,10.757128,106.701581
844,District 1 Hub Square 844,10.753222,106.699603
845,Le Trong Tan Bridge,10.754514,106.706281
846,Ho Tung Mau Crossing,10.744117,106.688749
847,Gia Dinh Park Square 847,10.757052,106.711934
848,Tan Son Nhi / Tran Quang Khai,10.756350,106.709324
849,Phan Van Tri / Lac Long Quan,10.747935,106.694559
850,Le Thanh Ton / Pham Ngu Lao,10.752293,106.699525
851,Ton That Thuyet Square,10.764453,106.702258
852,Ly Tu Trong Terminal,10.761860,106.694404
853,Hung Vuong Market,10.754395,106.701152
854,Turtle Lake Intersection 854,10.740450,106.709043
855,Nguyen Thai Hoc Bridge,10.763275,106.697785
856,Ut Tich Crossing,10.760654,106.684796
857,Nguyen Dinh Chieu Circle,10.749304,106.704014
858,Nguyen Hue Bridge,10.754734,106.702084
859,Truong Sa / Le Quy Don,10.745183,106.699880
860,Phu Lam Roundabout Circle 860,10.751583,106.703306
861,Bay Hien Junction Circle 861,10.754072,106.711138
862,Truong Chinh / Cong Hoa,10.762817,106.700833
863,Tan Phu North Circle 863,10.821342,106.628665
864,Mac Thi Buoi / De Tham,10.816797,106.621349
865,District 5 Market Crossing 865,10.828869,106.620000
866,Truong Chinh / Nguyen Son,10.830781,106.635711
867,Hong Bang / Nguyen Hue,10.824896,106.620000
868,Hang Xanh Junction Station 868,10.833978,106.620000
869,Nguyen Tat Thanh Bridge,10.821441,106.635772
870,Nguyen Thi Minh Khai Square,10.825334,106.622355
871,Le Van Viet / Ho Tung Mau,10.823518,106.621181
872,Thu Thiem Bridge 872,10.833753,106.640988
873,Nguyen Hue / Ly Chinh Thang,10.830039,106.629715
874,District 10 Center Market 874,10.819380,106.634852
875,Truong Chinh Circle,10.841407,106.629022
876,Opera House Circle 876,10.827459,106.620000
877,War Museum Area Bridge 877,10.832037,106.648139
878,Landmark Tower Crossing 878,10.833949,106.627964
879,Nguyen Xien / Phan Xich Long,10.821697,106.627674
880,Tao Dan Park Station 880,10.839422,106.620000
881,Lac Long Quan Overpass,10.816339,106.622517
882,Hong Bang / Vo Thi Sau,10.832907,106.628499
883,Pham Hong Thai / Le Van Viet,10.826425,106.622635
884,Ho Tung Mau / Ly Tu Trong,10.816871,106.625058
885,Truong Chinh / Nguyen Van Cu,10.818283,106.635707
886,Phan Dang Luu Terminal,10.833976,106.623915
887,Huynh Van Banh / Truong Sa,10.828515,106.621984
888,Pham Hong Thai Square #1,10.830966,106.642874
889,Phan Van Han / Nguyen Son,10.829719,106.623843
890,Tan Hoa Dong Corner #1,10.844755,106.628475
891,Ut Tich Circle #1,10.822224,106.621414
892,Nguyen Cong Tru Station,10.805951,106.629151
893,Saigon Pearl Junction 893,10.842503,106.632603
894,Le Van Viet Terminal,10.827057,106.623251
895,Notre Dame Area Bridge 895,10.828571,106.628772
896,Ngo Duc Ke / Luy Ban Bich,10.832317,106.623889
897,Le Hong Phong / Truong Sa,10.836075,106.625929
898,Nguyen Tat Thanh / Nguyen Cong Tru,10.817315,106.634323
899,Ngo Duc Ke Intersection,10.841062,106.626237
900,Cach Mang Thang Tam / Luy Ban Bich,10.814173,106.622449
901,Starlight Bridge Market 901,10.830697,106.623134
902,Cong Hoa / Hoang Van Thu,10.826407,106.620000
903,Dien Bien Phu / Phan Xich Long,10.832478,106.628897
904,Reunification Palace Circle 904,10.817832,106.629475
905,Phan Xich Long Corner,10.822403,106.635682
906,Ut Tich / Pham Van Dong,10.842808,106.620000
907,Nguyen Xien / Quang Trung,10.835347,106.640210
908,Nguyen Son / Ho Tung Mau #1,10.830336,106.620000
909,Hong Bang Corner,10.809467,106.632343
910,Phu Nhuan Center Crossing 910,10.819278,106.633014
911,Pham Viet Chanh / Ngo Duc Ke,10.832012,106.632719
912,Le Lai Underpass,10.822658,106.622884
913,District 7 South Junction 913,10.811247,106.620000
914,Nguyen Dinh Chieu / Truong Sa,10.833124,106.631957
915,Luy Ban Bich / Truong Chinh,10.830848,106.631052
916,Binh Thanh Gate Crossing 916,10.841945,106.632376
917,Nguyen Van Troi / Ho Tung Mau,10.819613,106.620000
918,District 5 Market Junction 918,10.825091,106.629273
919,Luy Ban Bich Terminal #1,10.836322,106.629466
920,Tran Phu / Mac Thi Buoi,10.838843,106.626257
921,Tan Son Nhat Gate Station 921,10.833765,106.637498
922,Nguyen Thai Hoc / Tan Hoa Dong,10.817684,106.626140
923,City Hall Station 923,10.814976,106.624252
924,Mac Thi Buoi / Nguyen Thai Hoc,10.828569,106.634611
925,Dam Sen Park Terminal 925,10.826721,106.637457
926,Le Trong Tan Intersection,10.824807,106.640794
927,Cong Hoa / Hung Vuong,10.831909,106.620000
928,Co Giang Station,10.825219,106.630752
929,Starlight Bridge Bridge 929,10.829585,106.631014
930,Pham Van Dong / Ngo Duc Ke,10.833290,106.620000
931,Pham Viet Chanh / Bui Vien,10.815599,106.635977
932,Tan Ky Tan Quy / Quang Trung,10.821751,106.620000
933,Pham Van Dong / Tran Hung Dao,10.829591,106.629283
934,Nguyen Thi Dieu Crossing,10.827463,106.640406
935,Nguyen Phi Khanh / Phan Van Han,10.834441,106.635392
936,Xo Viet Nghe Tinh Crossing #1,10.837918,106.627705
937,Ben Van Don / Vo Van Tan,10.839907,106.620000
938,Phan Xich Long Station,10.824109,106.626461
939,Nguyen Van Troi Station,10.830915,106.624222
940,Thu Duc North Market 940,10.828826,106.625736
941,Nguyen Phi Khanh / Nguyen Binh Khiem #1,10.826234,106.623093
942,Truong Chinh Market,10.836003,106.638661
943,Le Lai / Nam Ky Khoi Nghia,10.835585,106.634182
944,Hong Bang / Hung Vuong,10.832661,106.623582
945,De Tham / Ben Van Don,10.826803,106.632140
946,Luy Ban Bich / Le Trong Tan,10.829249,106.626780
947,Phan Van Han / Ly Tu Trong,10.836252,106.726322
948,Bau Cat Junction #1,10.825685,106.708275
949,Pham Ngu Lao Square,10.839238,106.719186
950,Opera House Terminal 950,10.821571,106.715498
951,Mac Thi Buoi / Phan Xich Long #1,10.828358,106.713313
952,An Phu East Market 952,10.835947,106.709484
953,Nguyen Thai Hoc / Nguyen Binh Khiem,10.826838,106.710060
954,Truong Chinh Square,10.827825,106.708584
955,Huynh Van Banh / Nguyen Van Linh,10.832749,106.716913
956,Notre Dame Area Underpass 956,10.828329,106.715191
957,Tan Ky Tan Quy Intersection,10.829146,106.716395
958,Co Giang Intersection,10.827290,106.717579
959,Bay Hien Junction Circle 959,10.819254,106.713551
960,Le Van Viet / Le Duan,10.823490,106.725244
961,Hai Ba Trung / Hoang Sa,10.846679,106.720087
962,Co Giang / Quang Trung,10.832615,106.718217
963,Le Lai / Vo Thi Sau,10.816260,106.712957
964,Truong Sa Overpass,10.826121,106.713071
965,Hong Bang / Nguyen Thi Minh Khai,10.811757,106.715872
966,Yersin Underpass,10.820062,106.725085
967,Vo Van Tan Intersection,10.815724,106.712604
968,Pham Van Dong Station,10.832039,106.714079
969,Bau Cat / Nguyen Van Cu,10.832164,106.724045
970,Hong Bang Bridge,10.818990,106.711296
971,Thu Duc North Square 971,10.822971,106.721867
972,Hang Xanh Junction Terminal 972,10.816827,106.714620
973,Saigon Zoo Area Corner 973,10.844310,106.707963
974,Nguyen Binh Khiem Bridge,10.818878,106.720895
975,Truong Chinh / Phan Xich Long #1,10.829119,106.724997
976,Mac Thi Buoi / Tran Quoc Thao,10.834924,106.716380
977,Le Quy Don / Tran Hung Dao,10.851589,106.715918
978,Truong Chinh Market #1,10.831118,106.695971
979,Hai Ba Trung / Lac Long Quan,10.811412,106.708640
980,Tan Son Nhi / Nguyen Van Troi,10.825843,106.718405
981,Nguyen Tat Thanh / Hoang Van Thu,10.830091,106.729487
982,Tan Hoa Dong Square,10.839862,106.708540
983,Ton Duc Thang Bridge,10.811448,106.716226
984,Co Bac Crossing #1,10.827150,106.713245
985,Hung Vuong / Ton That Thuyet,10.831932,106.697224
986,Tay Thanh Junction,10.832205,106.713245
987,Hoang Van Thu / Cach Mang Thang Tam,10.837728,106.718219
988,Ben Van Don / An Duong Vuong,10.822788,106.725927
989,Hung Vuong / Pham Viet Chanh,10.828720,106.704498
990,Luy Ban Bich / Ut Tich,10.829559,106.710555
991,Nguyen Tat Thanh / Bui Dinh Tuy #1,10.828236,106.704886
992,Tan Hoa Dong Market,10.817189,106.719918
993,Landmark Tower Bridge 993,10.831103,106.722567
994,Ngo Duc Ke / Hung Vuong,10.838283,106.714787
995,Hoang Dieu / Le Hong Phong,10.820447,106.731235
996,Pasteur / Nguyen Phi Khanh,10.825087,106.718861
997,Tran Phu Bridge,10.832139,106.721453
998,Hoang Sa Overpass,10.830009,106.716889
999,Bui Vien Underpass,10.819079,106.724561
1000,Ho Tung Mau Junction,10.846912,106.721522
1001,Luy Ban Bich / Tran Hung Dao,10.820542,106.727004
1002,Nguyen Van Linh / Le Van Viet,10.822072,106.726397
1003,Saigon Central Station 1003,10.810669,106.697535
1004,Ba Thang Hai / Nguyen Thi Minh Khai,10.818295,106.709083
1005,District 1 Hub Terminal 1005,10.825539,106.728761
1006,Ngo Duc Ke / Le Lai,10.827950,106.714110
1007,Co Giang Intersection #1,10.829566,106.713783
1008,Le Quy Don Terminal,10.837992,106.713758
1009,Bui Dinh Tuy / Lac Long Quan,10.835131,106.707648
1010,Quang Trung / Ben Van Don,10.846055,106.719435
1011,Nguyen Cong Tru Junction #1,10.819951,106.740123
1012,Pasteur Market,10.816972,106.703289
1013,Ben Van Don / Mac Thi Buoi,10.833964,106.713168
1014,Nguyen Son Overpass #1,10.835220,106.719080
1015,Turtle Lake Circle 1015,10.825304,106.707303
1016,Phu My Hung Overpass 1016,10.834564,106.711124
1017,Mac Thi Buoi Circle,10.834969,106.722605
1018,Hung Vuong Square #1,10.822085,106.699109
1019,Le Duan / Cong Hoa,10.822799,106.706385
1020,Pasteur / Le Quy Don,10.834687,106.728977
1021,Tao Dan Park Underpass 1021,10.834568,106.709308
1022,Pham Ngu Lao Square #1,10.834378,106.712360
1023,District 4 Port Bridge 1023,10.833940,106.727405
1024,Pasteur / Pham Hong Thai,10.823243,106.712595
1025,Tay Thanh / Luy Ban Bich #1,10.840752,106.721630
1026,Quang Trung Terminal #1,10.826703,106.707442
1027,Le Loi / Ngo Duc Ke,10.831938,106.718953
1028,Nguyen Van Cu / Tran Phu,10.825978,106.710223
1029,Lac Long Quan / Nguyen Van Troi,10.834765,106.708085
1030,Notre Dame Area Underpass 1030,10.816100,106.721051
1031,Cho Lon Market 1031,10.828025,106.704239
1032,Nguyen Van Troi Market,10.835368,106.720571
1033,Co Giang / Le Van Viet,10.806203,106.709550
1034,Tran Phu / Ben Van Don,10.830484,106.694550
1035,Ba Thang Hai / Le Hong Phong,10.838843,106.705807
1036,District 3 Park Terminal 1036,10.823592,106.732209
1037,Bui Vien Square #1,10.832753,106.707277
1038,Tan Binh Plaza Station 1038,10.831919,106.696415
1039,Au Co / Hoang Sa,10.821034,106.719493
1040,Ly Chinh Thang / De Tham,10.831106,106.712626
1041,Binh Thanh Gate Market 1041,10.839055,106.721754
1042,Nguyen Son Square,10.825115,106.702538
1043,Xo Viet Nghe Tinh Bridge,10.822870,106.720373
1044,Nguyen Trai / Nguyen Van Cu,10.839541,106.703435
1045,An Duong Vuong / Ho Tung Mau,10.828845,106.712388
1046,Hoang Sa / Nguyen Hue,10.825730,106.712111
1047,Dam Sen Park Market 1047,10.824146,106.710711
1048,Phu My Hung Bridge 1048,10.832400,106.704723
1049,Hang Xanh Junction Bridge 1049,10.823795,106.707553
1050,Bau Cat / Cong Hoa,10.845064,106.715649
1051,Nguyen Thi Minh Khai / Nguyen Thai Hoc,10.830861,106.710029
1052,Hang Xanh Junction Circle 1052,10.843806,106.718553
1053,Nguyen Van Cu / Ly Chinh Thang,10.826861,106.717958
1054,Nguyen Van Cu Terminal,10.824669,106.704928
1055,Tran Quoc Thao / Nguyen Binh Khiem,10.828502,106.707405
1056,Le Hong Phong / Truong Chinh,10.823239,106.720705
1057,Nguyen Cong Tru / Xo Viet Nghe Tinh,10.836818,106.718546
1058,Binh Thanh Gate Terminal 1058,10.838540,106.723171
1059,Ho Tung Mau Station,10.826765,106.704209
1060,Bay Hien Junction Corner 1060,10.823124,106.710556
1061,Dam Sen Park Terminal 1061,10.838438,106.710083
1062,Pham Viet Chanh / Phan Dang Luu,10.834446,106.699461
1063,Go Vap Junction Underpass 1063,10.830296,106.714983
1064,Hoang Dieu Junction #1,10.836823,106.703260
1065,Ben Thanh Overpass 1065,10.823379,106.723834
1066,Nguyen Phi Khanh Circle,10.830498,106.721169
1067,Xo Viet Nghe Tinh / Phan Van Tri,10.821461,106.714668
1068,Nguyen Van Cu Intersection,10.820291,106.721272
1069,Gia Dinh Park Junction 1069,10.825013,106.721321
1070,Saigon Pearl Corner 1070,10.822943,106.707698
1071,Nguyen Thi Minh Khai Market #1,10.814262,106.718395
1072,Pham Van Dong / Tran Hung Dao #1,10.765950,106.658832
1073,Pham Hong Thai Crossing,10.773026,106.658343
1074,Co Bac / Bau Cat,10.776244,106.645359
1075,District 7 South Bridge 1075,10.765163,106.645561
1076,Le Quy Don / Hai Ba Trung,10.780243,106.655950
1077,Yersin Terminal,10.769412,106.649968
1078,District 7 South Crossing 1078,10.773123,106.640627
1079,Gia Dinh Park Market 1079,10.770917,106.649959
1080,Starlight Bridge Circle 1080,10.774007,106.652600
1081,Le Van Viet Overpass,10.770582,106.642198
1082,Co Giang / Le Van Viet #1,10.775288,106.646343
1083,Le Trong Tan / Ly Tu Trong,10.775027,106.651184
1084,Nguyen Phi Khanh / Tran Hung Dao,10.761485,106.661125
1085,Nguyen Binh Khiem Intersection,10.763757,106.643350
1086,Tran Phu / De Tham,10.772146,106.652614
1087,Tan Ky Tan Quy / Cong Hoa,10.769207,106.651227
1088,Le Quy Don / Ngo Duc Ke,10.764450,106.646110
1089,Nguyen Van Troi / Ba Thang Hai,10.777738,106.656291
1090,Tran Phu / Nam Ky Khoi Nghia,10.779812,106.651363
1091,Thu Duc North Station 1091,10.776046,106.653172
1092,Le Trong Tan / Au Co,10.777830,106.649388
1093,Opera House Circle 1093,10.761459,106.637691
1094,Pham Van Dong Crossing,10.767242,106.651211
1095,Tan Binh Plaza Crossing 1095,10.783120,106.644379
1096,Le Van Tam Park Circle 1096,10.776784,106.630007
1097,Thu Thiem Intersection 1097,10.764833,106.635051
1098,Le Lai / Ben Van Don #1,10.780405,106.659947
1099,Nguyen Binh Khiem / Lac Long Quan,10.777134,106.662907
1100,Tan Hoa Dong / Au Co,10.766939,106.646821
1101,Ut Tich / Le Thanh Ton,10.773560,106.641219
1102,Pham Ngu Lao Corner,10.761721,106.646183
1103,Au Co / Nguyen Tat Thanh,10.766992,106.645530
1104,Ly Chinh Thang / Tan Hoa Dong,10.764895,106.643409
1105,Au Co Station #1,10.764430,106.651460
1106,Nguyen Van Linh Underpass,10.771701,106.638235
1107,Dam Sen Park Crossing 1107,10.786193,106.655284
1108,Tao Dan Park Square 1108,10.762406,106.641709
1109,Hang Xanh Junction Station 1109,10.766961,106.654216
1110,Dien Bien Phu / Mac Thi Buoi,10.764490,106.656769
1111,Ben Thanh Square 1111,10.783003,106.635341
1112,Nguyen Son / Ut Tich,10.765204,106.639145
1113,Tran Quoc Thao Bridge,10.764739,106.648360
1114,Hung Vuong Underpass,10.773191,106.634986
1115,Le Loi / Nguyen Son,10.777177,106.645788
1116,Pham Viet Chanh / Nguyen Thi Minh Khai,10.777983,106.645897
1117,Cong Hoa / Pham Hong Thai #1,10.762998,106.653982
1118,Hung Vuong / Au Co,10.774899,106.650734
1119,Co Bac / Hung Vuong,10.764360,106.650907
1120,District 10 Center Market 1120,10.758551,106.643292
1121,Cach Mang Thang Tam Circle,10.756262,106.658651
1122,Vo Van Tan / Tran Hung Dao,10.781784,106.646400
1123,Mac Thi Buoi / Ton That Thuyet,10.757992,106.628399
1124,Turtle Lake Bridge 1124,10.780678,106.633553
1125,Tao Dan Park Station 1125,10.773948,106.655224
1126,Tan Son Nhat Gate Terminal 1126,10.766720,106.650637
1127,Jade Emperor Area Market 1127,10.773232,106.641764
1128,Tan Hoa Dong / Yersin,10.768020,106.645627
1129,District 3 Park Underpass 1129,10.776819,106.652575
1130,Nguyen Cong Tru Terminal,10.767182,106.623814
1131,Binh Tan West Terminal 1131,10.760188,106.645555
1132,Phu Lam Roundabout Circle 1132,10.763935,106.635996
1133,Ben Thanh Terminal 1133,10.756752,106.635308
1134,Reunification Palace Station 1134,10.753193,106.651546
1135,Ba Thang Hai / Hai Ba Trung,10.756573,106.664206
1136,Hoang Van Thu / Huynh Van Banh,10.766218,106.636432
1137,Nam Ky Khoi Nghia / Pham Viet Chanh,10.778263,106.649999
1138,Nguyen Dinh Chieu / Le Thanh Ton,10.773920,106.636154
1139,Le Thanh Ton / Nguyen Son,10.754258,106.646041
1140,Bui Vien / Tay Thanh,10.766816,106.662095
1141,An Duong Vuong / Yersin,10.774756,106.656120
1142,Quang Trung Square #2,10.772085,106.640771
1143,Nguyen Dinh Chieu / Nguyen Trai,10.774732,106.631428
1144,Hoang Dieu Station,10.757612,106.638198
1145,Phu My Hung Bridge 1145,10.770524,106.655183
1146,Go Vap Junction Junction 1146,10.769149,106.639266
1147,Pham Van Dong / Nguyen Thi Dieu,10.773865,106.653602
1148,District 3 Park Market 1148,10.838499,106.677987
1149,An Duong Vuong Station,10.848456,106.668511
1150,Cho Lon Crossing 1150,10.838731,106.651000
1151,Hung Vuong Bridge,10.857515,106.663778
1152,Ngo Duc Ke / Ton Duc Thang,10.860000,106.661621
1153,Binh Tan West Underpass 1153,10.847253,106.680003
1154,District 7 South Corner 1154,10.841140,106.657305
1155,Le Loi Station,10.836182,106.665887
1156,Thu Thiem Underpass 1156,10.850672,106.671570
1157,Ly Tu Trong / Nguyen Thi Minh Khai,10.846521,106.674537
1158,Le Trong Tan Overpass,10.858443,106.665003
1159,Tay Thanh / Le Thanh Ton,10.860000,106.683354
1160,District 7 South Crossing 1160,10.837940,106.678964
1161,Phu Nhuan Center Overpass 1161,10.845561,106.663649
1162,Nguyen Binh Khiem Circle,10.822554,106.676956
1163,Co Bac Station #1,10.849257,106.672080
1164,Huynh Van Banh Square,10.846211,106.671855
1165,Nguyen Son Station,10.838943,106.672806
1166,Hung Vuong / Dien Bien Phu,10.851656,106.677797
1167,Tan Phu North Crossing 1167,10.844748,106.666922
1168,An Duong Vuong Junction,10.850593,106.670075
1169,Cho Lon Overpass 1169,10.851224,106.666661
1170,Ben Van Don / Ut Tich,10.844065,106.672324
1171,Tan Hoa Dong Station,10.860000,106.669703
1172,Le Duan Market,10.836985,106.676737
1173,Gia Dinh Park Crossing 1173,10.848800,106.677201
1174,Tran Quoc Thao / Nguyen Tat Thanh,10.830547,106.661740
1175,City Hall Market 1175,10.860000,106.678683
1176,Pham Viet Chanh Overpass,10.852019,106.663601
1177,Phan Dang Luu Circle #1,10.850562,106.679146
1178,Opera House Terminal 1178,10.841927,106.653349
1179,Mac Thi Buoi Junction #1,10.857361,106.675167
1180,Dam Sen Park Station 1180,10.852075,106.681364
1181,Pham Van Dong / An Duong Vuong,10.856815,106.673258
1182,Phan Van Tri / Dong Khoi,10.849033,106.669107
1183,Starlight Bridge Terminal 1183,10.843035,106.672498
1184,Phu Lam Roundabout Intersection 1184,10.860000,106.663468
1185,Tran Hung Dao / Luy Ban Bich,10.849562,106.668413
1186,Le Thanh Ton / Le Loi,10.856878,106.663296
1187,Ton Duc Thang / Lac Long Quan,10.848811,106.671673
1188,Pham Ngu Lao / Bui Vien,10.835975,106.659635
1189,Hoang Sa / Le Hong Phong,10.833277,106.669668
1190,Nguyen Tat Thanh Corner #1,10.839675,106.682387
1191,Saigon Zoo Area Intersection 1191,10.856420,106.677769
1192,De Tham / Nguyen Cong Tru,10.848567,106.658726
1193,Landmark Tower Square 1193,10.852841,106.675836
1194,Ton Duc Thang / Bau Cat,10.830706,106.676268
1195,Quang Trung / Nguyen Dinh Chieu,10.837057,106.660405
1196,Au Co / Ho Tung Mau,10.852636,106.669612
1197,Le Thanh Ton Intersection #1,10.835054,106.676706
1198,Binh Tan West Square 1198,10.851567,106.674389
1199,Phan Van Han / Nguyen Son #1,10.845907,106.667993
1200,Nguyen Thai Hoc Station,10.858303,106.665958
1201,Do Xuan Hop / Ton Duc Thang,10.853471,106.669579
1202,Bui Dinh Tuy Intersection,10.835913,106.658576
1203,Nam Ky Khoi Nghia / Phan Dang Luu,10.836664,106.671914
1204,Luy Ban Bich Terminal #2,10.851064,106.672369
1205,Le Lai / Ho Tung Mau,10.852930,106.680072
1206,Le Van Tam Park Junction 1206,10.849138,106.675303
1207,District 5 Market Junction 1207,10.849690,106.671013
1208,Tran Phu Bridge #1,10.843652,106.669783
1209,Nguyen Binh Khiem Intersection #1,10.840296,106.665405
1210,Hoang Dieu / Hoang Sa,10.848896,106.662420
1211,Dam Sen Park Junction 1211,10.843601,106.673392
1212,Mac Thi Buoi / Lac Long Quan,10.855534,106.665552
1213,Hoang Sa Corner #1,10.845477,106.658301
1214,Mac Thi Buoi / Bui Vien,10.856171,106.678215
1215,Phan Van Tri / Vo Thi Sau,10.852892,106.662296
1216,Hong Bang Bridge #1,10.855836,106.662286
1217,Thu Thiem Crossing 1217,10.856323,106.663535
1218,Dien Bien Phu Bridge,10.839349,106.674530
1219,Le Hong Phong / Nguyen Van Troi,10.838814,106.670890
1220,Au Co / Cach Mang Thang Tam #1,10.847725,106.677949
1221,Cho Lon Junction 1221,10.860000,106.660590
1222,Turtle Lake Market 1222,10.860000,106.668698
1223,Thu Duc North Terminal 1223,10.836132,106.678392
1224,Hoang Dieu Intersection,10.844278,106.669510
1225,Binh Thanh Gate Junction 1225,10.852111,106.674372
1226,Ut Tich Underpass #1,10.840842,106.670275
1227,Tan Binh Plaza Underpass 1227,10.828664,106.658421
1228,Au Co / Hong Bang,10.835904,106.677327
1229,Xo Viet Nghe Tinh / Do Xuan Hop,10.858848,106.669507
1230,Nguyen Son / Nguyen Van Linh,10.855860,106.671131
1231,Bay Hien Junction Corner 1231,10.842756,106.666929
1232,Le Lai Junction #1,10.847369,106.666735
1233,City Hall Corner 1233,10.853460,106.674311
1234,Truong Sa / Mac Thi Buoi,10.852240,106.678537
1235,Tan Hoa Dong / Tan Son Nhi,10.853475,106.668717
1236,Vo Thi Sau Corner #1,10.856205,106.660387
1237,District 4 Port Junction 1237,10.843813,106.674452
1238,Starlight Bridge Crossing 1238,10.854395,106.672265
1239,Pham Viet Chanh Terminal,10.837924,106.671248
1240,Le Duan Intersection,10.837206,106.659525
1241,Nguyen Van Cu / Ho Tung Mau,10.854497,106.663850
1242,Bui Vien / Nguyen Trai,10.741778,106.638356
1243,Saigon Central Circle 1243,10.722376,106.639563
1244,Luy Ban Bich Corner,10.728198,106.645253
1245,Phan Dang Luu / Le Duan,10.727211,106.645482
1246,Le Van Viet Overpass #1,10.752946,106.641173
1247,Saigon Zoo Area Terminal 1247,10.733282,106.648211
1248,Tran Phu Terminal,10.728392,106.632345
1249,Ba Thang Hai Circle,10.737267,106.643199
1250,Nam Ky Khoi Nghia / Nguyen Trai,10.739808,106.646820
1251,Ly Chinh Thang / Pham Van Dong,10.733359,106.646224
1252,Cach Mang Thang Tam Square,10.733958,106.660185
1253,Le Thanh Ton / Tran Phu,10.738862,106.641499
1254,Cho Lon Overpass 1254,10.738352,106.644285
1255,Nguyen Van Linh / Ly Chinh Thang,10.735687,106.645890
1256,Phan Van Han / Nguyen Trai,10.734705,106.638332
1257,Nguyen Van Linh / Bui Dinh Tuy,10.756050,106.633276
1258,An Phu East Bridge 1258,10.732572,106.650098
1259,Tran Phu Corner,10.731531,106.626754
1260,Mac Thi Buoi Overpass #1,10.733845,106.627147
1261,Thu Thiem Terminal 1261,10.732169,106.637025
1262,District 10 Center Bridge 1262,10.734243,106.644739
1263,Hoang Sa Junction,10.724930,106.636880
1264,Binh Thanh Gate Market 1264,10.752156,106.646992
1265,Binh Quoi Village Junction 1265,10.731366,106.644907
1266,Le Hong Phong / Yersin,10.745039,106.635067
1267,Nguyen Phi Khanh / An Duong Vuong,10.737740,106.640008
1268,Tran Phu Underpass,10.741098,106.636753
1269,Le Hong Phong / Ton That Thuyet,10.753106,106.638515
1270,Truong Sa / Tran Quoc Thao,10.745492,106.647367
1271,Le Duan Bridge #1,10.722805,106.641741
1272,District 4 Port Station 1272,10.738818,106.635746
1273,Tan Binh Plaza Intersection 1273,10.742736,106.647122
1274,Cho Lon Circle 1274,10.741756,106.646406
1275,Le Van Tam Park Intersection 1275,10.742137,106.633316
1276,Hong Bang / Luy Ban Bich,10.739238,106.639280
1277,Nguyen Van Cu / Quang Trung,10.747106,106.647519
1278,Nguyen Cong Tru / Phan Van Han,10.748278,106.632824
1279,Tan Son Nhi Terminal #1,10.741657,106.639080
1280,Gia Dinh Park Underpass 1280,10.723924,106.632735
1281,Tran Hung Dao Circle #2,10.741903,106.632154
1282,Mac Thi Buoi / Pham Hong Thai,10.740132,106.641558
1283,Opera House Junction 1283,10.741994,106.644646
1284,Nguyen Xien Intersection,10.736251,106.648705
1285,Ba Thang Hai / Nguyen Van Linh,10.739211,106.634123
1286,Le Lai / Ton Duc Thang,10.746752,106.627317
1287,Mac Thi Buoi / Le Van Viet,10.731412,106.637588
1288,District 5 Market Crossing 1288,10.735961,106.652813
1289,Cong Hoa Bridge,10.740584,106.648459
1290,Truong Chinh Underpass #1,10.731376,106.620840
1291,Phu Nhuan Center Crossing 1291,10.738842,106.635254
1292,Thanh Da Island Underpass 1292,10.746288,106.622722
1293,Le Trong Tan Market,10.729105,106.650394
1294,Pasteur Underpass #1,10.739310,106.631893
1295,Nguyen Trai Underpass,10.740925,106.633973
1296,Nguyen Dinh Chieu / Le Hong Phong,10.739293,106.643282
1297,Tan Hoa Dong / Hung Vuong,10.733597,106.626137
1298,Nguyen Xien Bridge,10.742372,106.640195
1299,Le Duan / Tran Quoc Thao,10.742436,106.640651
1300,Tay Thanh Intersection,10.732049,106.627535
1301,Saigon Central Crossing 1301,10.734131,106.636391
1302,Tan Son Nhi / Nguyen Thai Hoc,10.746769,106.649683
1303,Nguyen Son Intersection,10.729268,106.651779
1304,Le Loi Market,10.735677,106.639093
1305,Pham Van Dong / Nguyen Hue,10.739760,106.644292
1306,Bui Dinh Tuy / Luy Ban Bich,10.742283,106.638584
1307,Thu Duc North Square 1307,10.731554,106.647128
1308,Binh Quoi Village Intersection 1308,10.750143,106.620000
1309,Au Co / Bui Vien,10.727363,106.646616
1310,Ho Tung Mau / Cong Hoa,10.729395,106.638029
1311,Notre Dame Area Circle 1311,10.738109,106.635922
1312,Tao Dan Park Intersection 1312,10.726101,106.642676
1313,Luy Ban Bich / Yersin,10.741867,106.635105
1314,Thu Duc North Station 1314,10.751237,106.665557
1315,Nguyen Trai / Ben Van Don,10.727835,106.643636
1316,Ba Thang Hai / Le Duan,10.730012,106.645436
1317,Nguyen Tat Thanh / De Tham,10.735193,106.643213
1318,Phu Lam Roundabout Bridge 1318,10.739590,106.647550
1319,Hang Xanh Junction Station 1319,10.733681,106.632831
1320,Lac Long Quan / Pham Ngu Lao,10.748231,106.638436
1321,Mac Thi Buoi / Pasteur,10.745359,106.645628
1322,Pasteur / Nguyen Van Cu,10.740823,106.640731
1323,Tan Ky Tan Quy / Ton Duc Thang,10.729757,106.647298
1324,Dam Sen Park Terminal 1324,10.739438,106.627442
1325,Tan Phu North Market 1325,10.742191,106.650438
1326,Cho Lon Station 1326,10.729889,106.652376
1327,Notre Dame Area Terminal 1327,10.741626,106.636430
1328,Thanh Da Island Underpass 1328,10.736684,106.639705
1329,Landmark Tower Overpass 1329,10.834697,106.692732
1330,District 5 Market Market 1330,10.825047,106.700862
1331,Notre Dame Area Bridge 1331,10.839660,106.705216
1332,Nguyen Thi Minh Khai / Pasteur,10.827704,106.690855
1333,Tan Son Nhi / Pasteur,10.830253,106.700814
1334,Le Hong Phong / Nguyen Thai Hoc,10.834853,106.691913
1335,Nguyen Van Troi / Le Van Sy,10.842017,106.702652
1336,Le Duan Circle,10.827379,106.694473
1337,Cho Lon Terminal 1337,10.837456,106.706285
1338,Jade Emperor Area Circle 1338,10.829194,106.696055
1339,Le Quy Don / Co Bac,10.842721,106.704221
1340,Quang Trung / Ton Duc Thang,10.827404,106.700050
1341,Reunification Palace Square 1341,10.831812,106.698008
1342,Dam Sen Park Overpass 1342,10.828076,106.698048
1343,Pham Van Dong Intersection,10.841864,106.691548
1344,Nguyen Tat Thanh Intersection,10.833204,106.705498
1345,Tan Son Nhi Crossing,10.819505,106.688867
1346,Starlight Bridge Terminal 1346,10.828427,106.699581
1347,Tran Quoc Thao / Bui Dinh Tuy,10.827156,106.706337
1348,District 10 Center Station 1348,10.836627,106.695037
1349,Landmark Tower Square 1349,10.824626,106.709523
1350,District 7 South Bridge 1350,10.842027,106.695416
1351,Au Co Circle,10.822020,106.703128
1352,Turtle Lake Bridge 1352,10.842893,106.699274
1353,Au Co / Nguyen Trai,10.833373,106.700288
1354,Phu Nhuan Center Overpass 1354,10.835287,106.687718
1355,Ly Chinh Thang Circle,10.836158,106.710971
1356,Cach Mang Thang Tam / Phan Dang Luu,10.831515,106.697654
1357,Quang Trung / Cong Hoa,10.847856,106.705544
1358,Pasteur / Huynh Van Banh,10.838242,106.700067
1359,Cho Lon Underpass 1359,10.835376,106.696815
1360,Nguyen Dinh Chieu Corner,10.832186,106.703212
1361,Hoang Dieu Corner #1,10.820875,106.693491
1362,Mac Thi Buoi / Le Van Sy,10.825911,106.688384
1363,Le Van Viet Overpass #2,10.843721,106.711495
1364,Phan Xich Long Terminal #1,10.843098,106.685868
1365,Le Quy Don / Xo Viet Nghe Tinh,10.838199,106.699156
1366,Le Van Sy Station,10.840253,106.691702
1367,Nguyen Cong Tru / Tran Phu,10.834543,106.706795
1368,Pham Van Dong / Yersin,10.820407,106.711752
1369,Gia Dinh Park Overpass 1369,10.832565,106.699347
1370,Nguyen Trai Corner,10.833932,106.709521
1371,Tay Thanh / Hai Ba Trung,10.826217,106.704257
1372,Le Van Sy Circle #3,10.840192,106.693176
1373,Le Lai Overpass,10.827277,106.700831
1374,Co Giang Junction,10.845354,106.714219
1375,Phan Xich Long Circle,10.840528,106.698777
1376,Truong Sa / Ly Chinh Thang,10.846336,106.711063
1377,Hoang Dieu Junction #2,10.843544,106.697371
1378,Quang Trung Terminal #2,10.833292,106.706301
1379,Le Hong Phong / Ton Duc Thang,10.832286,106.684852
1380,Opera House Station 1380,10.839367,106.692011
1381,Lac Long Quan Underpass,10.822040,106.694296
1382,Tao Dan Park Overpass 1382,10.836363,106.703517
1383,Saigon Zoo Area Bridge 1383,10.839096,106.709178
1384,Tan Binh Plaza Bridge 1384,10.837861,106.705386
1385,Tan Hoa Dong / Mac Thi Buoi,10.828210,106.690019
1386,Ho Tung Mau Intersection #1,10.832966,106.715243
1387,Co Bac / Ut Tich,10.840391,106.706943
1388,Nguyen Son Overpass #2,10.836890,106.722280
1389,Hang Xanh Junction Circle 1389,10.835311,106.701019
1390,Do Xuan Hop / Hung Vuong,10.838765,106.712147
1391,Phan Van Han Crossing,10.836470,106.684902
1392,Phan Van Han / Co Bac,10.847609,106.698195
1393,An Phu East Underpass 1393,10.844558,106.714571
1394,District 3 Park Junction 1394,10.830106,106.695598
1395,Binh Tan West Corner 1395,10.832227,106.709105
1396,Luy Ban Bich / Mac Thi Buoi,10.823767,106.697322
1397,Dien Bien Phu / Co Giang,10.848754,106.687415
1398,Ton Duc Thang / Cong Hoa,10.830414,106.690453
1399,Pham Hong Thai / Tay Thanh,10.840497,106.705667
1400,Cho Lon Junction 1400,10.853198,106.695287
1401,Ben Van Don / Yersin,10.833529,106.714190
1402,Phan Van Han / Phan Van Tri,10.838648,106.704355
1403,Do Xuan Hop / Hung Vuong #1,10.836848,106.700116
1404,Le Thanh Ton / Phan Van Han,10.836292,106.706171
1405,Hung Vuong Circle #1,10.844293,106.692113
1406,Huynh Van Banh Market,10.838907,106.699483
1407,Quang Trung / Cach Mang Thang Tam,10.827266,106.718664
1408,Tao Dan Park Junction 1408,10.816772,106.696863
1409,Luy Ban Bich / Huynh Van Banh,10.834788,106.705555
1410,Phan Van Han / Dong Khoi,10.838424,106.710754
1411,Nguyen Trai / De Tham,10.825572,106.699767
1412,Ba Thang Hai / Nguyen Xien,10.830621,106.707446
1413,Phu My Hung Bridge 1413,10.838319,106.693824
1414,Tran Quang Khai Station,10.834512,106.703060
1415,Thu Duc North Corner 1415,10.839062,106.700186
1416,War Museum Area Corner 1416,10.845722,106.705034
1417,Cach Mang Thang Tam Junction,10.817205,106.692498
1418,Le Van Tam Park Overpass 1418,10.846948,106.710421
1419,Dong Khoi / Tan Ky Tan Quy,10.844106,106.700085
1420,Hoang Van Thu Square,10.840541,106.700916
1421,Vo Van Tan / Truong Chinh,10.829405,106.697521
1422,Nguyen Van Cu / Le Van Sy #1,10.841270,106.700736
1423,Truong Sa / Ly Chinh Thang #1,10.849425,106.699579
1424,Nguyen Phi Khanh Overpass,10.837601,106.708621
1425,Yersin / Nguyen Xien,10.827779,106.698501
1426,Ngo Duc Ke / Hoang Van Thu,10.836475,106.711329
1427,City Hall Bridge 1427,10.830974,106.701019
1428,Nguyen Xien / Phan Van Tri,10.833094,106.729347
1429,District 3 Park Terminal 1429,10.840547,106.716937
1430,Au Co / Hung Vuong,10.817319,106.716977
1431,Le Thanh Ton / Tran Quoc Thao,10.841341,106.725813
1432,Nam Ky Khoi Nghia / Truong Chinh,10.833994,106.710777
1433,Le Hong Phong / Hoang Dieu,10.830853,106.720070
1434,Tan Phu North Corner 1434,10.838450,106.725527
1435,Go Vap Junction Underpass 1435,10.828597,106.722249
1436,Tran Quoc Thao / Le Quy Don,10.832001,106.726225
1437,Tran Quang Khai / Dien Bien Phu,10.823325,106.709134
1438,Thu Duc North Station 1438,10.833959,106.731122
1439,Ba Thang Hai / Tan Hoa Dong,10.827852,106.718761
1440,Hang Xanh Junction Underpass 1440,10.820799,106.720966
1441,War Museum Area Circle 1441,10.836165,106.717712
1442,District 10 Center Junction 1442,10.834048,106.732659
1443,Turtle Lake Overpass 1443,10.831630,106.730139
1444,Le Hong Phong / Tran Hung Dao,10.840451,106.726006
1445,Tran Phu Terminal #1,10.841539,106.730478
1446,District 10 Center Circle 1446,10.813094,106.721772
1447,Le Loi / Pham Ngu Lao,10.814961,106.712542
1448,Phan Van Han Underpass,10.820068,106.709708
1449,Hai Ba Trung Terminal,10.817284,106.712796
1450,Quang Trung Intersection #1,10.820942,106.724605
1451,Saigon Zoo Area Market 1451,10.826516,106.709385
1452,Gia Dinh Park Crossing 1452,10.844279,106.725516
1453,Hung Vuong / Tran Hung Dao,10.809789,106.719566
1454,Tao Dan Park Intersection 1454,10.835507,106.729876
1455,Hang Xanh Junction Underpass 1455,10.818062,106.718435
1456,Co Giang / Ton That Thuyet #2,10.826357,106.715409
1457,Luy Ban Bich Square,10.834663,106.708576
1458,Tan Hoa Dong Square #1,10.823999,106.714430
1459,Jade Emperor Area Terminal 1459,10.830860,106.723079
1460,Tran Hung Dao / Pham Hong Thai #1,10.826884,106.724122
1461,Bui Dinh Tuy / Hai Ba Trung,10.834208,106.713830
1462,Nguyen Thi Dieu / De Tham,10.831236,106.712141
1463,Pham Hong Thai Junction,10.820155,106.715440
1464,Nguyen Xien Bridge #1,10.829984,106.708819
1465,Pham Ngu Lao / Nguyen Son,10.813894,106.723033
1466,Cong Hoa / Dong Khoi,10.816489,106.708890
1467,Truong Sa / Le Lai,10.823866,106.718724
1468,Binh Quoi Village Terminal 1468,10.832365,106.724494
1469,Hoang Sa / Tran Phu,10.824348,106.713183
1470,Luy Ban Bich / Phan Van Tri,10.842149,106.716348
1471,Ton That Thuyet / Le Lai,10.827576,106.723720
1472,Do Xuan Hop Station #1,10.824573,106.714584
1473,Jade Emperor Area Terminal 1473,10.829708,106.714705
1474,Saigon Central Terminal 1474,10.837900,106.716074
1475,Le Duan Crossing,10.829388,106.719843
1476,Hung Vuong Junction,10.824427,106.725838
1477,Cach Mang Thang Tam Bridge,10.826975,106.720313
1478,Le Van Viet Circle #1,10.839266,106.722963
1479,Tran Quoc Thao Underpass,10.814130,106.727038
1480,Nguyen Cong Tru / Do Xuan Hop,10.827894,106.701440
1481,Phu My Hung Market 1481,10.825231,106.716063
1482,Opera House Overpass 1482,10.820817,106.711128
1483,Hai Ba Trung / Pham Van Dong,10.824321,106.721941
1484,Le Thanh Ton Market,10.822189,106.730033
1485,Truong Chinh / Nguyen Phi Khanh,10.835228,106.718615
1486,Pasteur / Nguyen Van Linh,10.815361,106.717148
1487,Le Hong Phong Market,10.823729,106.715682
1488,Bau Cat / Bui Dinh Tuy,10.830861,106.720745
1489,Binh Tan West Underpass 1489,10.824818,106.731430
1490,Bau Cat Overpass,10.839004,106.718233
1491,Ho Tung Mau / Ut Tich,10.818169,106.716711
1492,Tan Son Nhi / Phan Dang Luu,10.822709,106.718202
1493,Le Hong Phong / Hoang Dieu #1,10.832045,106.712151
1494,Phu Lam Roundabout Market 1494,10.821452,106.721495
1495,Phan Van Han / Hong Bang,10.820738,106.717994
1496,Quang Trung Underpass,10.821060,106.722934
1497,Le Thanh Ton / Quang Trung,10.843396,106.716454
1498,Do Xuan Hop Crossing #1,10.827680,106.714860
1499,Ly Chinh Thang / Cong Hoa,10.825683,106.710658
1500,Jade Emperor Area Crossing 1500,10.815271,106.733365
1501,Yersin / Tran Quoc Thao,10.833166,106.720102
1502,Au Co / Ton That Thuyet,10.828178,106.720780
1503,Dien Bien Phu Square,10.844870,106.724050
1504,Nguyen Thai Hoc / Le Duan #2,10.832598,106.710539
1505,Tan Son Nhat Gate Terminal 1505,10.834409,106.712898
1506,Hang Xanh Junction Square 1506,10.839999,106.710767
1507,Tao Dan Park Overpass 1507,10.829410,106.709489
1508,Tan Ky Tan Quy / Hoang Dieu,10.813463,106.723995
1509,Dong Khoi / Tran Phu,10.815655,106.730123
1510,Pasteur Bridge,10.827679,106.707463
1511,De Tham / Cong Hoa,10.819294,106.708918
1512,District 1 Hub Bridge 1512,10.845848,106.729111
1513,Tan Son Nhi / Tran Phu,10.834935,106.717444
1514,Au Co / Dong Khoi,10.837213,106.723957
1515,Tran Quang Khai / Ton That Thuyet,10.810080,106.719945
1516,Ly Tu Trong / Bui Vien,10.838388,106.720422
1517,Tran Quang Khai / Phan Xich Long,10.838612,106.717680
1518,Ba Thang Hai Junction,10.829230,106.714346
1519,Nguyen Thi Minh Khai / Tran Quoc Thao,10.823359,106.714271
1520,De Tham / Nam Ky Khoi Nghia,10.822652,106.722635
1521,Dam Sen Park Market 1521,10.832622,106.731719
1522,Nguyen Thi Minh Khai / Le Quy Don,10.828817,106.711058
1523,Tran Hung Dao / Ngo Duc Ke,10.820554,106.719759
1524,Cong Hoa / Le Thanh Ton,10.818679,106.715405
1525,Hong Bang / Bui Dinh Tuy,10.825948,106.726645
1526,Ba Thang Hai / Nguyen Van Troi,10.834747,106.739037
1527,An Duong Vuong Junction #1,10.820531,106.716983
1528,Pham Viet Chanh Overpass #1,10.837641,106.719002
1529,Tan Hoa Dong Circle,10.828958,106.718900
1530,Cho Lon Square 1530,10.821541,106.711110
1531,District 4 Port Station 1531,10.831840,106.722009
1532,Phan Van Tri Overpass,10.831008,106.728146
1533,Binh Tan West Overpass 1533,10.827744,106.732285
1534,Hang Xanh Junction Corner 1534,10.835971,106.718167
1535,Ben Thanh Bridge 1535,10.840912,106.720169
1536,Jade Emperor Area Market 1536,10.811663,106.721477
1537,Pham Van Dong Crossing #1,10.838565,106.711319
1538,Pasteur / Tran Phu,10.797254,106.738351
1539,Le Trong Tan Corner,10.791061,106.743021
1540,Le Loi Crossing,10.782982,106.759599
1541,Thu Thiem Underpass 1541,10.776307,106.753973
1542,Pham Hong Thai Intersection #2,10.801015,106.750418
1543,Vo Thi Sau / Nguyen Thi Dieu,10.803879,106.755521
1544,Phan Van Han / Tay Thanh,10.815325,106.747006
1545,Ben Van Don Crossing #1,10.795909,106.754725
1546,Landmark Tower Intersection 1546,10.801667,106.742042
1547,Tan Son Nhat Gate Square 1547,10.789020,106.740894
1548,Huynh Van Banh / Hoang Van Thu,10.798408,106.751286
1549,Nguyen Cong Tru Intersection,10.804721,106.736600
1550,Pham Van Dong Bridge #1,10.795561,106.748198
1551,Turtle Lake Overpass 1551,10.794377,106.759864
1552,Nguyen Binh Khiem Station,10.789179,106.739347
1553,Le Van Viet / Au Co,10.799133,106.742831
1554,Vo Thi Sau / Nam Ky Khoi Nghia,10.784913,106.749881
1555,Ben Thanh Station 1555,10.793107,106.757835
1556,Saigon Central Underpass 1556,10.795692,106.752720
1557,Nguyen Van Troi Intersection,10.796431,106.760000
1558,Thu Duc North Junction 1558,10.798098,106.755542
1559,Reunification Palace Circle 1559,10.780145,106.751437
1560,Nam Ky Khoi Nghia Corner,10.794727,106.758674
1561,Le Trong Tan / Tan Ky Tan Quy,10.788729,106.748887
1562,Go Vap Junction Crossing 1562,10.791241,106.750964
1563,Le Duan / Le Thanh Ton,10.812173,106.746770
1564,Nguyen Son / Bau Cat,10.807892,106.755084
1565,Nguyen Tat Thanh Crossing,10.797025,106.750512
1566,Tan Ky Tan Quy Junction,10.788469,106.744079
1567,Bay Hien Junction Bridge 1567,10.786008,106.752192
1568,Saigon Central Terminal 1568,10.803900,106.756510
1569,Le Loi / Le Trong Tan,10.783976,106.748463
1570,Ut Tich Square,10.792113,106.739171
1571,Bay Hien Junction Terminal 1571,10.790563,106.744935
1572,Le Thanh Ton / Nguyen Phi Khanh,10.796271,106.753619
1573,Opera House Circle 1573,10.786288,106.744751
1574,An Phu East Corner 1574,10.800058,106.756752
1575,District 3 Park Junction 1575,10.804057,106.747818
1576,District 1 Hub Station 1576,10.795736,106.760000
1577,District 10 Center Crossing 1577,10.782383,106.760000
1578,Le Van Tam Park Bridge 1578,10.788103,106.759579
1579,Reunification Palace Bridge 1579,10.789029,106.734987
1580,Dong Khoi / Phan Van Han,10.792374,106.756409
1581,Nguyen Thi Dieu / Au Co,10.794696,106.750288
1582,Xo Viet Nghe Tinh Underpass,10.790355,106.745460
1583,Nguyen Hue Corner,10.788811,106.755300
1584,District 3 Park Circle 1584,10.802080,106.750080
1585,Le Lai Junction #2,10.784046,106.753746
1586,Vo Thi Sau / Huynh Van Banh,10.799832,106.748789
1587,District 7 South Intersection 1587,10.793146,106.742461
1588,Tran Hung Dao Overpass,10.809816,106.751685
1589,Phan Van Tri Intersection,10.802158,106.758474
1590,Ba Thang Hai Market #1,10.792554,106.755190
1591,Le Duan Crossing #1,10.822157,106.745615
1592,Phan Dang Luu Market,10.805752,106.760000
1593,Dong Khoi / Nguyen Son,10.776753,106.736748
1594,Cach Mang Thang Tam / Nguyen Binh Khiem,10.781164,106.741421
1595,Phu Lam Roundabout Terminal 1595,10.793783,106.753699
1596,Nguyen Xien / Co Giang,10.782957,106.751776
1597,Dam Sen Park Market 1597,10.794659,106.738098
1598,Tan Hoa Dong / Phan Van Han,10.787691,106.751182
1599,Phu Lam Roundabout Overpass 1599,10.784153,106.751345
1600,Le Van Sy / Ben Van Don,10.800049,106.750897
1601,Ly Chinh Thang / Yersin,10.796215,106.757866
1602,Pham Viet Chanh Terminal #1,10.794469,106.752978
1603,An Duong Vuong / Au Co,10.803833,106.752063
1604,District 4 Port Station 1604,10.787586,106.752763
1605,Vo Van Tan / Pham Hong Thai,10.803098,106.750949
1606,Saigon Pearl Overpass 1606,10.800007,106.745735
1607,De Tham / Vo Van Tan,10.800240,106.752647
1608,Xo Viet Nghe Tinh / Phan Xich Long,10.788145,106.757350
1609,District 4 Port Intersection 1609,10.789781,106.760000
1610,Nguyen Van Linh Circle #1,10.786807,106.722502
1611,Nguyen Tat Thanh Station #1,10.801305,106.749974
1612,Nguyen Xien / Cach Mang Thang Tam,10.800443,106.737490
1613,Truong Sa Terminal,10.798379,106.745311
1614,Phan Van Tri Crossing,10.786054,106.746692
1615,Ton That Thuyet Intersection #1,10.792573,106.754373
1616,Mac Thi Buoi / Ut Tich,10.780049,106.755500
1617,Phan Van Han Overpass,10.799358,106.744744
1618,War Museum Area Underpass 1618,10.798248,106.743321
1619,Hai Ba Trung / Mac Thi Buoi,10.787655,106.747949
1620,Hang Xanh Junction Bridge 1620,10.789116,106.759488
1621,Ben Van Don / Le Duan,10.809584,106.732991
1622,Hoang Van Thu / An Duong Vuong,10.789517,106.748501
1623,Truong Chinh / Nguyen Van Cu #1,10.790185,106.744385
1624,District 7 South Intersection 1624,10.806545,106.752059
1625,Nguyen Thi Dieu / Pham Viet Chanh,10.813180,106.758299
1626,Le Van Viet / Le Loi,10.792925,106.747044
1627,District 5 Market Crossing 1627,10.802043,106.760000
1628,Co Giang Intersection #2,10.800299,106.755653
1629,Gia Dinh Park Square 1629,10.798283,106.753569
1630,Binh Quoi Village Underpass 1630,10.779514,106.738132
1631,Nguyen Trai / An Duong Vuong,10.792008,106.743722
1632,Do Xuan Hop Corner,10.801997,106.752772
1633,Tan Son Nhat Gate Junction 1633,10.808470,106.740825
1634,Lac Long Quan Corner,10.794039,106.743041
1635,Nguyen Son / Nguyen Van Cu,10.790690,106.737606
1636,Turtle Lake Terminal 1636,10.790231,106.752173
1637,Thu Duc North Station 1637,10.785778,106.757392
1638,Ly Chinh Thang Circle #1,10.793807,106.747345
1639,Phu Nhuan Center Underpass 1639,10.801918,106.742927
1640,Hoang Dieu Market,10.792031,106.732548
1641,Bui Dinh Tuy Corner,10.800118,106.754909
1642,Hong Bang / Au Co,10.795205,106.751944
1643,Ben Van Don Junction,10.784845,106.758608
1644,Nguyen Binh Khiem Overpass,10.798504,106.749879
1645,Truong Chinh / Nguyen Van Troi,10.794488,106.740400
1646,District 4 Port Square 1646,10.792617,106.741252
1647,Pham Viet Chanh / De Tham,10.795296,106.750954
1648,Le Loi / Ngo Duc Ke #1,10.786787,106.747892
1649,Hai Ba Trung / Pham Van Dong #1,10.798857,106.755803
1650,Le Van Viet Overpass #3,10.797172,106.760000
1651,Nguyen Phi Khanh / Tran Phu,10.788427,106.739591
1652,Hoang Sa Intersection,10.795297,106.749863
1653,Ton That Thuyet / Pasteur,10.790398,106.753798
1654,Le Duan / Vo Thi Sau,10.801803,106.749125
1655,Ba Thang Hai Underpass #1,10.798050,106.748688
1656,Nguyen Binh Khiem / Cong Hoa,10.798694,106.756805
1657,Ben Van Don Station,10.786735,106.741605
1658,Saigon Zoo Area Junction 1658,10.791498,106.753486
1659,Nguyen Cong Tru / Tan Ky Tan Quy,10.787763,106.755298
1660,Tran Quoc Thao / Le Trong Tan #1,10.792534,106.751803
1661,Hoang Van Thu Square #1,10.771392,106.682787
1662,Bau Cat / Co Giang,10.774652,106.700126
1663,Reunification Palace Square 1663,10.765315,106.677286
1664,Tan Hoa Dong / Le Duan,10.763743,106.684078
1665,Notre Dame Area Market 1665,10.769112,106.705984
1666,Ben Thanh Intersection 1666,10.771003,106.692060
1667,Le Van Sy / Le Hong Phong,10.788070,106.698350
1668,Yersin / Phan Van Han,10.775202,106.685443
1669,Hai Ba Trung / Le Van Sy,10.773371,106.700950
1670,Xo Viet Nghe Tinh Square,10.784270,106.691557
1671,Le Van Viet Station #1,10.772675,106.707870
1672,Xo Viet Nghe Tinh / Phan Van Tri #1,10.770751,106.691266
1673,Nguyen Van Troi Overpass,10.775180,106.706505
1674,Le Van Viet Corner,10.772816,106.691202
1675,Quang Trung / Le Duan,10.779269,106.706866
1676,Truong Sa Square,10.777202,106.695806
1677,Truong Sa Intersection,10.783684,106.702402
1678,District 5 Market Underpass 1678,10.766272,106.696164
1679,Thanh Da Island Circle 1679,10.777415,106.704508
1680,City Hall Station 1680,10.779486,106.711754
1681,Bay Hien Junction Underpass 1681,10.768206,106.702828
1682,Tan Hoa Dong Junction,10.770439,106.698449
1683,Tran Quoc Thao / Le Trong Tan #2,10.775328,106.688133
1684,Co Bac / Au Co,10.764821,106.694206
1685,Gia Dinh Park Crossing 1685,10.772451,106.702688
1686,Phan Dang Luu / Nguyen Hue,10.768366,106.707536
1687,Quang Trung Station,10.784093,106.697317
1688,Yersin Station #1,10.791655,106.688008
1689,Jade Emperor Area Junction 1689,10.763268,106.697308
1690,Ly Chinh Thang Intersection,10.778816,106.696362
1691,Nguyen Thai Hoc Market,10.776327,106.676548
1692,Nguyen Thi Minh Khai / Co Giang #1,10.771811,106.685572
1693,Hai Ba Trung / Le Lai,10.786379,106.690744
1694,District 3 Park Circle 1694,10.766521,106.687747
1695,Nguyen Van Troi / Tay Thanh,10.759538,106.684733
1696,Bui Vien / Ly Tu Trong,10.764303,106.690984
1697,Au Co / Nguyen Dinh Chieu,10.763705,106.682499
1698,Turtle Lake Circle 1698,10.769555,106.695956
1699,Notre Dame Area Bridge 1699,10.771326,106.687752
1700,Ly Tu Trong Crossing,10.771760,106.704256
1701,Nguyen Trai / Ngo Duc Ke,10.765612,106.686098
1702,Nguyen Phi Khanh / Nguyen Hue,10.774548,106.678107
1703,Le Duan / Ton That Thuyet,10.789376,106.695358
1704,Ba Thang Hai Square,10.763175,106.694735
1705,An Duong Vuong Bridge,10.776322,106.701360
1706,Tran Quang Khai / Phan Dang Luu,10.776713,106.691844
1707,Bay Hien Junction Crossing 1707,10.773682,106.713781
1708,Co Bac / De Tham,10.777960,106.693008
1709,Gia Dinh Park Terminal 1709,10.773470,106.703775
1710,Nguyen Hue / Tan Son Nhi,10.772976,106.693295
1711,Nguyen Hue / Co Bac,10.775266,106.694288
1712,Quang Trung Terminal #3,10.755901,106.682357
1713,Le Quy Don / Le Van Sy,10.768431,106.706918
1714,Nguyen Thi Minh Khai / Pham Hong Thai #1,10.785724,106.692270
1715,Nguyen Tat Thanh / Mac Thi Buoi,10.784820,106.686185
1716,Binh Tan West Corner 1716,10.778739,106.697215
1717,Nguyen Xien Station #1,10.763067,106.700181
1718,Saigon Zoo Area Junction 1718,10.774357,106.696022
1719,Thu Thiem Bridge 1719,10.787511,106.694079
1720,Nguyen Thai Hoc Station #1,10.761641,106.697830
1721,Thu Duc North Underpass 1721,10.792377,106.689439
1722,Le Van Viet Bridge,10.766498,106.703797
1723,Phan Van Han / Ly Tu Trong #1,10.777456,106.684155
1724,Le Van Tam Park Square 1724,10.770902,106.707902
1725,Saigon Pearl Intersection 1725,10.790548,106.684484
1726,Ly Tu Trong Crossing #1,10.774899,106.701443
1727,Nguyen Binh Khiem / Co Giang,10.763053,106.701604
1728,Luy Ban Bich / De Tham,10.775273,106.690942
1729,Dam Sen Park Crossing 1729,10.765526,106.680947
1730,Ut Tich / Le Trong Tan,10.776727,106.689653
1731,Co Bac Overpass,10.781434,106.699456
1732,Nguyen Thi Dieu Intersection,10.768249,106.688552
1733,Phan Van Tri / Au Co,10.774316,106.703181
1734,Yersin / Le Thanh Ton #1,10.786898,106.691477
1735,Ben Thanh Circle 1735,10.786701,106.680740
1736,Le Hong Phong Corner,10.783864,106.700314
1737,Le Thanh Ton Market #1,10.776601,106.682387
1738,Le Loi / Pham Van Dong,10.769179,106.687395
1739,Pham Viet Chanh Intersection,10.778876,106.690979
1740,District 3 Park Underpass 1740,10.765871,106.696566
1741,Le Trong Tan Corner #1,10.767402,106.684162
1742,Ut Tich / Tan Hoa Dong,10.765883,106.719276
1743,Xo Viet Nghe Tinh / Cach Mang Thang Tam,10.769321,106.716702
1744,Vo Thi Sau Underpass,10.777282,106.691701
1745,Quang Trung Underpass #1,10.773072,106.678507
1746,District 5 Market Junction 1746,10.756750,106.711063
1747,Opera House Station 1747,10.767764,106.694404
1748,Phan Dang Luu / Truong Chinh,10.767102,106.702754
1749,Tan Son Nhi Junction,10.771367,106.699180
1750,District 5 Market Bridge 1750,10.782078,106.686371
1751,Nguyen Trai / Truong Sa,10.782709,106.705947
1752,Le Loi Corner,10.777338,106.709582
1753,District 3 Park Station 1753,10.773119,106.686201
1754,Nguyen Thi Minh Khai Crossing #1,10.839542,106.702344
1755,Reunification Palace Bridge 1755,10.835266,106.703581
1756,Nguyen Van Troi Junction,10.827354,106.706766
1757,Le Trong Tan / Nguyen Van Cu,10.837409,106.710394
1758,Binh Thanh Gate Terminal 1758,10.827054,106.698575
1759,Tran Phu / Yersin,10.839169,106.696229
1760,Nguyen Xien / Vo Thi Sau,10.835479,106.705224
1761,District 4 Port Underpass 1761,10.841832,106.706438
1762,Tan Hoa Dong / Hung Vuong #1,10.831090,106.690711
1763,Pham Van Dong Square #1,10.825744,106.716200
1764,Pham Van Dong / Do Xuan Hop,10.821213,106.711897
1765,Go Vap Junction Intersection 1765,10.821852,106.705628
1766,Le Trong Tan / Tran Quang Khai,10.848189,106.701279
1767,Dong Khoi / Le Thanh Ton,10.840211,106.705225
1768,Phan Xich Long / Hai Ba Trung,10.821142,106.699647
1769,Nguyen Van Linh / Ba Thang Hai,10.835064,106.707027
1770,Tran Quoc Thao / Dong Khoi,10.814433,106.713897
1771,Pham Van Dong Terminal,10.840642,106.701722
1772,Pham Hong Thai / Tay Thanh #1,10.837433,106.712086
1773,Dong Khoi / Le Van Sy,10.826172,106.703628
1774,Dien Bien Phu Square #1,10.835810,106.705945
1775,Le Thanh Ton / Tan Ky Tan Quy,10.827034,106.701592
1776,Ly Chinh Thang / Nguyen Tat Thanh,10.822587,106.709690
1777,District 3 Park Market 1777,10.812981,106.710181
1778,Hong Bang / Phan Dang Luu,10.834735,106.715736
1779,Binh Quoi Village Bridge 1779,10.829222,106.694887
1780,Hung Vuong / Co Bac,10.839143,106.717672
1781,De Tham / Pham Van Dong #1,10.842244,106.706697
1782,Hong Bang / Ly Tu Trong,10.839277,106.711363
1783,Le Loi / Ton Duc Thang,10.829157,106.720887
1784,Pham Ngu Lao / De Tham,10.816410,106.719625
1785,Quang Trung / Ton Duc Thang #1,10.837315,106.716468
1786,Truong Chinh Circle #1,10.819288,106.702686
1787,Co Giang / Tran Quang Khai,10.818203,106.694281
1788,War Museum Area Terminal 1788,10.841161,106.702966
1789,District 3 Park Overpass 1789,10.826323,106.701538
1790,Yersin Underpass #1,10.831264,106.702308
1791,Le Van Tam Park Square 1791,10.833578,106.693066
1792,An Phu East Circle 1792,10.824570,106.707732
1793,Hong Bang / Ly Tu Trong #1,10.827932,106.687135
1794,Le Van Sy / Ly Tu Trong,10.830170,106.708144
1795,Ben Thanh Station 1795,10.831084,106.694774
1796,Phan Van Han / Nguyen Xien,10.823285,106.688279
1797,Go Vap Junction Station 1797,10.826738,106.693895
1798,Nguyen Hue Underpass,10.836681,106.705387
1799,Starlight Bridge Overpass 1799,10.817060,106.726171
1800,Do Xuan Hop Intersection,10.823041,106.698003
1801,Pham Hong Thai / Nam Ky Khoi Nghia,10.834987,106.711747
1802,Bui Vien / Phan Van Tri,10.824597,106.708579
1803,Go Vap Junction Circle 1803,10.836707,106.701815
1804,Bau Cat / Hoang Van Thu,10.829477,106.711287
1805,Cho Lon Terminal 1805,10.849762,106.696217
1806,Nguyen Hue / Nguyen Son,10.843631,106.695218
1807,Nguyen Thai Hoc / Tran Quang Khai,10.824978,106.706594
1808,District 10 Center Crossing 1808,10.830633,106.705550
1809,Dam Sen Park Junction 1809,10.814678,106.701822
1810,Le Hong Phong / Tran Quang Khai,10.832706,106.712868
1811,Tran Phu Square #1,10.825331,106.703495
1812,Hoang Sa / Bui Vien,10.839969,106.715148
1813,Xo Viet Nghe Tinh / Hai Ba Trung,10.832355,106.707063
1814,Ton That Thuyet / Quang Trung,10.819770,106.706469
1815,Nguyen Binh Khiem Station #1,10.817862,106.700489
1816,Co Giang Square,10.813365,106.704722
1817,Cach Mang Thang Tam / Nguyen Thai Hoc,10.834454,106.707365
1818,Phan Van Tri / Le Hong Phong,10.817842,106.704933
1819,An Phu East Circle 1819,10.844445,106.703004
1820,Cach Mang Thang Tam / Nguyen Xien,10.818024,106.706128
1821,Le Hong Phong Intersection,10.836198,106.709072
1822,Bui Dinh Tuy / Nguyen Son #1,10.817714,106.707216
1823,District 3 Park Intersection 1823,10.841998,106.727672
1824,Nam Ky Khoi Nghia / Co Bac,10.832422,106.706134
1825,Ngo Duc Ke / Le Lai #1,10.820031,106.704221
1826,Saigon Zoo Area Junction 1826,10.830085,106.712236
1827,Saigon Zoo Area Intersection 1827,10.831614,106.705172
1828,Turtle Lake Square 1828,10.830077,106.711261
1829,Bui Vien / Ton Duc Thang,10.831373,106.714234
1830,Le Thanh Ton Corner,10.825593,106.694346
1831,Au Co Market,10.822171,106.716135
1832,Pham Ngu Lao / Le Thanh Ton,10.829784,106.715393
1833,Phan Dang Luu Intersection,10.851832,106.710294
1834,Nguyen Van Linh / Tan Ky Tan Quy,10.830451,106.682249
1835,Hoang Sa Market,10.828487,106.710478
1836,Truong Chinh / Phan Xich Long #2,10.835138,106.697392
1837,Cong Hoa Corner,10.846064,106.691243
1838,Hung Vuong Crossing,10.842468,106.694393
1839,Tran Hung Dao Square,10.825887,106.700796
1840,Dong Khoi / Hoang Van Thu,10.825539,106.692536
1841,Ben Van Don / Phan Van Han,10.855474,106.707740
1842,Ba Thang Hai Terminal,10.829126,106.684921
1843,Nguyen Tat Thanh Bridge #1,10.835611,106.691869
1844,Dien Bien Phu / Au Co,10.834888,106.704803
1845,Lac Long Quan Market,10.830172,106.684213
1846,Vo Thi Sau / Pham Viet Chanh,10.833014,106.690326
1847,Nguyen Cong Tru / Mac Thi Buoi,10.835742,106.701999
1848,Pham Van Dong Crossing #2,10.831787,106.695024
1849,City Hall Corner 1849,10.842967,106.699811
1850,Tan Binh Plaza Station 1850,10.846411,106.705995
1851,Bau Cat Junction #2,10.840944,106.695759
1852,Nguyen Van Cu Circle,10.838097,106.694714
1853,Tan Son Nhi Crossing #1,10.845351,106.697984
1854,Phan Xich Long Overpass #1,10.833483,106.687715
1855,Vo Thi Sau Corner #2,10.828848,106.692183
1856,Ben Van Don Square,10.834331,106.710234
1857,District 3 Park Terminal 1857,10.823369,106.704050
1858,Quang Trung / Tran Quang Khai,10.841900,106.714369
1859,Nguyen Van Cu / Ben Van Don,10.834585,106.698426
1860,Le Hong Phong / Nguyen Van Troi #1,10.833596,106.694980
1861,Starlight Bridge Square 1861,10.824516,106.702957
1862,Notre Dame Area Station 1862,10.833461,106.685367
1863,Dong Khoi Square,10.850423,106.701690
1864,Bau Cat / Le Trong Tan,10.835610,106.703089
1865,Pham Ngu Lao Market,10.856337,106.701511
1866,Tan Son Nhat Gate Terminal 1866,10.834154,106.694558
1867,District 4 Port Overpass 1867,10.829647,106.700537
1868,Nguyen Van Linh / Pham Viet Chanh,10.833980,106.699298
1869,Ben Thanh Intersection 1869,10.848916,106.709771
1870,Ho Tung Mau / Vo Thi Sau,10.843924,106.701015
1871,Go Vap Junction Terminal 1871,10.846284,106.694006
1872,Ho Tung Mau / Pham Hong Thai,10.837446,106.703128
1873,Dong Khoi / Tay Thanh,10.823934,106.713730
1874,Thanh Da Island Bridge 1874,10.833003,106.704105
1875,Phan Van Han / Yersin,10.838625,106.692999
1876,Vo Van Tan Junction #2,10.848893,106.693772
1877,Nguyen Trai Corner #1,10.849851,106.682864
1878,Tan Hoa Dong Crossing,10.840789,106.706716
1879,Nguyen Trai Crossing,10.841977,106.705260
1880,Pham Hong Thai Corner,10.833724,106.703493
1881,Tay Thanh Overpass,10.826415,106.700080
1882,Binh Tan West Station 1882,10.828364,106.712212
1883,Saigon Pearl Market 1883,10.827394,106.704334
1884,Jade Emperor Area Market 1884,10.838994,106.692643
1885,Ly Tu Trong Intersection,10.824716,106.693964
1886,Le Lai Market #1,10.832093,106.703865
1887,Nguyen Thai Hoc / Le Lai,10.831348,106.700445
1888,Pham Viet Chanh Terminal #2,10.844914,106.686678
1889,Ton That Thuyet Intersection #2,10.845249,106.712080
1890,District 3 Park Station 1890,10.835500,106.695752
1891,District 1 Hub Underpass 1891,10.834265,106.687468
1892,Hang Xanh Junction Square 1892,10.843879,106.706272
1893,Vo Van Tan / Le Loi,10.843066,106.701184
1894,Tran Quang Khai / Luy Ban Bich,10.822273,106.693570
1895,Thanh Da Island Terminal 1895,10.835038,106.686473
1896,Le Loi Circle #1,10.829410,106.703576
1897,Hang Xanh Junction Square 1897,10.837729,106.701557
1898,Truong Chinh Underpass #2,10.841570,106.689264
1899,Thu Thiem Station 1899,10.844171,106.683997
1900,Co Bac / Le Thanh Ton,10.841365,106.697086
1901,Cong Hoa Bridge #1,10.843070,106.702498
1902,Saigon Zoo Area Overpass 1902,10.843603,106.687392
1903,District 10 Center Circle 1903,10.842933,106.712157
1904,Ho Tung Mau / Ly Chinh Thang,10.823228,106.690392
1905,Truong Chinh / Hoang Sa,10.824554,106.692041
1906,Tan Son Nhat Gate Terminal 1906,10.832940,106.721519
1907,Le Loi Corner #1,10.842244,106.701715
1908,Saigon Zoo Area Station 1908,10.835788,106.679547
1909,Ton Duc Thang Corner,10.832289,106.678401
1910,Cach Mang Thang Tam / Pasteur,10.824587,106.706985
1911,Cho Lon Circle 1911,10.828873,106.695658
1912,Bau Cat / Ly Tu Trong,10.841988,106.710026
1913,Nguyen Trai / Ly Chinh Thang,10.841128,106.698050
1914,Tay Thanh Overpass #1,10.845008,106.699356
1915,Tan Binh Plaza Corner 1915,10.822033,106.697751
1916,Co Giang Intersection #3,10.837702,106.698907
1917,Dam Sen Park Crossing 1917,10.839674,106.701835
1918,Truong Chinh Crossing,10.837071,106.695568
1919,Vo Van Tan / Nguyen Van Cu,10.845115,106.704102
1920,Phan Xich Long Terminal #2,10.833399,106.691126
1921,Hoang Van Thu / Quang Trung,10.832995,106.696181
1922,Bay Hien Junction Overpass 1922,10.850923,106.703645
1923,Le Quy Don Corner #1,10.840845,106.705287
1924,Dong Khoi Bridge,10.819984,106.704802
1925,District 3 Park Crossing 1925,10.838706,106.687738
1926,Vo Van Tan / Vo Thi Sau,10.834389,106.704289
1927,Au Co / Pham Van Dong,10.828773,106.705503
1928,Ben Van Don Station #1,10.846712,106.706411
1929,Gia Dinh Park Crossing 1929,10.824554,106.724244
1930,Luy Ban Bich / Nguyen Trai,10.835179,106.701946
1931,Le Lai / Hung Vuong,10.846211,106.701867
1932,Tran Hung Dao / Le Hong Phong,10.841068,106.699002
1933,Thanh Da Island Underpass 1933,10.838198,106.701266
1934,Huynh Van Banh / Tran Quang Khai,10.827614,106.702255
1935,Phan Van Tri Circle,10.837283,106.696665
1936,Gia Dinh Park Market 1936,10.839369,106.706119
1937,Notre Dame Area Junction 1937,10.833114,106.692675
1938,Tan Son Nhi / Nguyen Son,10.819859,106.693420
1939,Le Quy Don Junction #1,10.842840,106.709066
1940,Hoang Dieu / Huynh Van Banh,10.845176,106.712532
1941,Tan Binh Plaza Overpass 1941,10.834894,106.699657
1942,Dien Bien Phu / Phan Dang Luu,10.815505,106.706361
1943,Le Lai / Tran Hung Dao,10.845902,106.697893
