id,name,lat,lon
0,Vo Van Tan / Tay Thanh,10.803808,106.634146
1,Au Co / Co Bac,10.801028,106.622735
2,Cho Lon,10.805289,106.648235
3,Nguyen Thi Minh Khai Intersection,10.808912,106.637106
4,Phu Nhuan Center,10.813875,106.620000
5,Binh Thanh Gate,10.823745,106.637296
6,Thu Duc North,10.806460,106.624732
7,Mac Thi Buoi / Nguyen Van Troi,10.816164,106.622542
8,Le Hong Phong Bridge,10.807254,106.620201
9,Nguyen Xien Terminal,10.803026,106.633477
10,Bau Cat / Ly Chinh Thang,10.809659,106.631495
11,Co Bac / Le Trong Tan,10.809757,106.622064
12,Le Loi Overpass,10.817383,106.629912
13,Phu My Hung,10.805353,106.620000
14,Hung Vuong / Ly Chinh Thang,10.806360,106.641538
15,Huynh Van Banh Market,10.788561,106.635839
16,Bau Cat / Tran Quoc Thao,10.808283,106.620654
17,Yersin / Ly Chinh Thang,10.812755,106.622164
18,An Phu East,10.794098,106.626749
19,Le Lai / Nguyen Phi Khanh,10.814649,106.630177
20,Saigon Zoo Area,10.807961,106.636078
21,Pham Van Dong Square,10.818991,106.636316
22,Opera House,10.813854,106.636711
23,City Hall,10.806034,106.646313
24,Hoang Sa Underpass,10.809936,106.639826
25,War Museum Area,10.797692,106.654329
26,Vo Thi Sau / Le Duan,10.798630,106.633814
27,Vo Thi Sau / Nguyen Hue,10.801965,106.639218
28,Hai Ba Trung / Xo Viet Nghe Tinh,10.817760,106.635026
29,Le Van Tam Park,10.812891,106.632692
30,Ut Tich Bridge,10.808517,106.634306
31,Phan Dang Luu Crossing,10.793755,106.632547
32,Binh Quoi Village,10.814536,106.635012
33,Starlight Bridge,10.794915,106.632811
34,Saigon Pearl,10.811191,106.629790
35,Phan Dang Luu / Pham Van Dong,10.799101,106.643624
36,Nguyen Van Troi / Vo Van Tan,10.799626,106.632809
37,Phu Lam Roundabout,10.792669,106.635714
38,Ly Tu Trong Intersection,10.836484,106.639665
39,Nguyen Tat Thanh / Nguyen Thi Minh Khai,10.812198,106.638130
40,Lac Long Quan / Ho Tung Mau,10.807836,106.630603
41,Cong Hoa Overpass,10.789781,106.639497
42,Nguyen Thi Minh Khai / Tan Son Nhi,10.806653,106.625603
43,Nam Ky Khoi Nghia / Tan Son Nhi,10.807314,106.627325
44,District Market 44,10.789805,106.632760
45,Binh Station 45,10.812061,106.632626
46,Le Trong Tan / Dong Khoi,10.819836,106.641656
47,Starlight Corner 47,10.801466,106.624466
48,Le Van Sy Circle,10.812527,106.627994
49,Le Quy Don / Vo Van Tan,10.798097,106.637423
50,Thu Crossing 50,10.818695,106.630803
51,Nguyen Thai Hoc / Le Duan,10.798333,106.627926
52,Nguyen Van Linh / Tran Quoc Thao,10.813145,106.624866
53,Ben Overpass 53,10.789523,106.620000
54,Tan Circle 54,10.810330,106.623994
55,District Circle 55,10.810416,106.632676
56,Hong Bang / Huynh Van Banh,10.797507,106.622365
57,Nam Ky Khoi Nghia Crossing,10.801487,106.629945
58,Xo Viet Nghe Tinh / Le Thanh Ton,10.797568,106.620000
59,Truong Chinh Underpass,10.803507,106.625420
60,Cach Mang Thang Tam / Nguyen Van Linh,10.806566,106.630641
61,Turtle Square 61,10.815052,106.631875
62,Pham Hong Thai / Truong Sa,10.827117,106.621411
63,Cong Hoa / Hoang Dieu,10.802657,106.620000
64,Le Van Sy Square,10.820699,106.627973
65,Pasteur Square,10.822003,106.627977
66,Nguyen Van Troi Circle,10.806962,106.622988
67,Hai Ba Trung / Luy Ban Bich,10.814284,106.640618
68,Thanh Intersection 68,10.810107,106.644665
69,Nguyen Cong Tru / Le Duan,10.809557,106.641733
70,War Overpass 70,10.813901,106.628814
71,Bui Vien Circle,10.817415,106.628980
72,Pham Ngu Lao / Le Trong Tan,10.816464,106.648624
73,Tay Thanh / Nguyen Xien,10.795725,106.635315
74,Dong Khoi / Hung Vuong,10.820386,106.641544
75,District Corner 75,10.825802,106.630345
76,Tan Ky Tan Quy Corner,10.789848,106.638314
77,Bui Dinh Tuy Circle,10.805431,106.626620
78,Landmark Square 78,10.804022,106.623990
79,Nguyen Van Cu / Nguyen Son,10.811795,106.641201
80,Tran Quoc Thao Circle,10.800159,106.626716
81,Saigon Terminal 81,10.811044,106.643757
82,District Overpass 82,10.796357,106.634445
83,Reunification Crossing 83,10.815863,106.635043
84,Thu Intersection 84,10.813129,106.620000
85,Nguyen Son Crossing,10.809047,106.632118
86,Notre Terminal 86,10.791541,106.634762
87,Thu Station 87,10.803916,106.632817
88,Go Terminal 88,10.804587,106.621721
89,Tran Phu / Nguyen Son,10.797527,106.628162
90,District Underpass 90,10.791952,106.637894
91,Hong Bang Circle,10.813207,106.623463
92,Le Quy Don / Nguyen Van Linh,10.813368,106.633222
93,Cach Mang Thang Tam / Dien Bien Phu,10.811569,106.632370
94,Jade Junction 94,10.815097,106.633366
95,Tan Son Nhi Underpass,10.809805,106.638198
96,Gia Junction 96,10.823939,106.632171
97,Ton That Thuyet / Pham Van Dong,10.813874,106.627779
98,Hung Vuong / Quang Trung,10.803068,106.626739
99,War Underpass 99,10.814689,106.631465
100,Ben Van Don / Au Co,10.815330,106.638174
101,Tan Terminal 101,10.805844,106.629413
102,Lac Long Quan / Nguyen Binh Khiem,10.810151,106.635799
103,Ton That Thuyet / Phan Xich Long,10.798966,106.644188
104,Nam Ky Khoi Nghia Corner,10.812154,106.622386
105,Dong Khoi Junction,10.808054,106.633128
106,Cach Mang Thang Tam / Le Van Sy,10.812637,106.628490
107,Phu Terminal 107,10.815920,106.638633
108,Tay Thanh / Bui Vien,10.803305,106.620000
109,Tan Son Nhi / Pasteur,10.808399,106.625440
110,Co Bac Station,10.817016,106.625624
111,Tran Quoc Thao / Le Trong Tan,10.794947,106.621907
112,Cho Corner 112,10.812446,106.620000
113,Phan Van Tri / Le Loi,10.796041,106.627746
114,Le Lai / Hong Bang,10.816277,106.620000
115,Nguyen Van Cu / Le Van Viet,10.768550,106.649534
116,Pham Van Dong Terminal,10.767853,106.653758
117,Saigon Intersection 117,10.747062,106.658398
118,Nguyen Van Troi Terminal,10.763308,106.652147
119,Phan Van Han / Nguyen Binh Khiem,10.750897,106.650075
120,Phan Van Tri Circle,10.763948,106.660150
121,Le Loi / Le Van Viet,10.770735,106.646631
122,Quang Trung Market,10.764860,106.654040
123,Dam Terminal 123,10.762282,106.642887
124,Nguyen Van Troi / Nguyen Phi Khanh,10.762596,106.651717
125,Opera Station 125,10.757703,106.648542
126,Lac Long Quan / Ngo Duc Ke,10.771767,106.654910
127,Le Quy Don Crossing,10.759636,106.660554
128,District Intersection 128,10.760776,106.635504
129,Starlight Bridge 129,10.761193,106.648705
130,Nguyen Thi Dieu / Le Lai,10.760896,106.658728
131,District Junction 131,10.762233,106.656345
132,Tan Overpass 132,10.771679,106.653491
133,Ut Tich Circle,10.767951,106.648287
134,Nam Ky Khoi Nghia / Phan Xich Long,10.753191,106.656772
135,Nguyen Tat Thanh Terminal,10.770154,106.651825
136,Cach Mang Thang Tam / Hoang Van Thu,10.771727,106.660184
137,Hang Bridge 137,10.761770,106.665348
138,Tao Circle 138,10.763134,106.664739
139,Tan Ky Tan Quy / Nguyen Thi Minh Khai,10.777154,106.636427
140,Truong Sa Overpass,10.751515,106.646777
141,Nguyen Van Cu / Truong Chinh,10.764504,106.666532
142,Hang Terminal 142,10.762175,106.655391
143,Lac Long Quan Crossing,10.760166,106.660736
144,Bau Cat Bridge,10.754693,106.638354
145,Saigon Intersection 145,10.751786,106.639316
146,Vo Van Tan Junction,10.751163,106.641127
147,Hoang Van Thu Circle,10.765111,106.661049
148,Nguyen Tat Thanh / Ngo Duc Ke,10.753306,106.658481
149,Dong Khoi / Hung Vuong #1,10.752319,106.655097
150,Nguyen Thi Dieu / Ut Tich,10.760598,106.644291
151,Ngo Duc Ke Bridge,10.760255,106.654272
152,Tao Circle 152,10.774669,106.658486
153,Dam Crossing 153,10.766083,106.664771
154,Hoang Dieu / Phan Van Han,10.760030,106.658517
155,Truong Chinh Junction,10.757068,106.673851
156,Nguyen Tat Thanh / Nguyen Xien,10.754979,106.657072
157,Au Co Station,10.761828,106.654782
158,Dam Overpass 158,10.770769,106.658355
159,Le Thanh Ton / Ho Tung Mau,10.759220,106.656052
160,Bau Cat / Tay Thanh,10.750194,106.659819
161,Le Loi / Truong Chinh,10.765491,106.643140
162,Bui Vien Terminal,10.756874,106.658243
163,Pham Viet Chanh / Nguyen Xien,10.772576,106.651351
164,Gia Intersection 164,10.759361,106.647157
165,Le Trong Tan / Nguyen Xien,10.757346,106.656324
166,Ton That Thuyet / Phan Van Tri,10.761553,106.650791
167,Ho Tung Mau Underpass,10.770377,106.651301
168,Quang Trung Square,10.758458,106.665272
169,Nguyen Van Linh / Co Bac,10.752961,106.658159
170,Thu Station 170,10.766305,106.666588
171,Cach Mang Thang Tam / Phan Van Han,10.757597,106.641086
172,Xo Viet Nghe Tinh Crossing,10.765709,106.654213
173,Le Junction 173,10.767717,106.648999
174,District Crossing 174,10.760238,106.647030
175,Ben Van Don / Nguyen Dinh Chieu,10.740934,106.659146
176,Co Bac Corner,10.770991,106.642568
177,Saigon Junction 177,10.749965,106.643168
178,An Intersection 178,10.757324,106.651187
179,Hong Bang / Ton Duc Thang,10.761480,106.646591
180,Pham Viet Chanh Corner,10.763670,106.653725
181,Tan Overpass 181,10.758484,106.658301
182,Co Bac / Tan Ky Tan Quy,10.762943,106.650414
183,Thu Terminal 183,10.757825,106.646553
184,Le Circle 184,10.755907,106.648361
185,Opera Bridge 185,10.759593,106.650910
186,Le Circle 186,10.755434,106.674618
187,Binh Station 187,10.764127,106.662611
188,Pham Viet Chanh Junction,10.752241,106.650556
189,Hoang Van Thu / Nam Ky Khoi Nghia,10.831406,106.710645
190,Ho Tung Mau Intersection,10.830992,106.705219
191,Bay Circle 191,10.813963,106.707618
192,Tan Overpass 192,10.814191,106.700777
193,Tran Phu / Hai Ba Trung,10.829007,106.718709
194,Pham Viet Chanh / Nguyen Binh Khiem,10.808396,106.706037
195,Nguyen Van Linh / Le Lai,10.819717,106.707293
196,Phan Xich Long Terminal,10.802427,106.708855
197,Bui Vien Terminal #1,10.826346,106.710903
198,Ben Van Don Market,10.824083,106.711246
199,Pham Van Dong / De Tham,10.810387,106.722831
200,Phu Station 200,10.808316,106.715616
201,Nguyen Thi Dieu / Luy Ban Bich,10.828142,106.695203
202,Bay Intersection 202,10.836203,106.714866
203,Thanh Overpass 203,10.812981,106.703170
204,Tran Quoc Thao Terminal,10.816114,106.714656
205,Notre Terminal 205,10.824158,106.716165
206,Saigon Station 206,10.806328,106.726424
207,Ton Duc Thang Terminal,10.808803,106.705543
208,Yersin / Dien Bien Phu,10.805652,106.699692
209,Ton Duc Thang Overpass,10.801405,106.719097
210,District Station 210,10.808212,106.725021
211,Lac Long Quan Crossing #1,10.816394,106.732997
212,Saigon Junction 212,10.813823,106.702481
213,Hoang Van Thu / Truong Sa,10.821165,106.706446
214,Dien Bien Phu / Nguyen Thi Dieu,10.832168,106.717955
215,Nguyen Hue Circle,10.817654,106.716245
216,Phan Xich Long / Nguyen Van Cu,10.822612,106.708789
217,Pham Hong Thai / Le Van Sy,10.832169,106.722491
218,Le Thanh Ton / Ton That Thuyet,10.818585,106.711508
219,City Market 219,10.806735,106.710104
220,Nguyen Son / Dong Khoi,10.812497,106.707393
221,Thanh Terminal 221,10.817301,106.694937
222,Nguyen Tat Thanh Station,10.818545,106.710687
223,Vo Van Tan Crossing,10.816166,106.703715
224,Saigon Station 224,10.827651,106.720239
225,Hang Station 225,10.829628,106.711932
226,Truong Chinh Underpass #1,10.829901,106.719527
227,Hoang Dieu Corner,10.825425,106.705918
228,Le Quy Don Station,10.823568,106.705131
229,Luy Ban Bich Crossing,10.817446,106.717933
230,City Square 230,10.822635,106.714097
231,Reunification Overpass 231,10.809824,106.708577
232,Turtle Underpass 232,10.825171,106.717456
233,Pham Ngu Lao / Ut Tich,10.826043,106.714357
234,Thu Corner 234,10.815162,106.712048
235,Ut Tich Intersection,10.824115,106.705940
236,Tan Ky Tan Quy Bridge,10.825232,106.697800
237,District Junction 237,10.815161,106.703172
238,Phan Van Tri / Nguyen Thai Hoc,10.825071,106.723553
239,War Crossing 239,10.835939,106.712884
240,Do Xuan Hop / Dien Bien Phu,10.826914,106.721078
241,Nguyen Phi Khanh / Nguyen Binh Khiem,10.813529,106.718437
242,Nam Ky Khoi Nghia / Cach Mang Thang Tam,10.821534,106.702052
243,District Terminal 243,10.825893,106.721535
244,District Intersection 244,10.814948,106.704415
245,An Overpass 245,10.819917,106.708333
246,Le Trong Tan / Nguyen Thi Minh Khai,10.818582,106.710148
247,Mac Thi Buoi / Phan Xich Long,10.826563,106.712591
248,Turtle Square 248,10.818803,106.716185
249,Cong Hoa / Pham Hong Thai,10.826586,106.719422
250,Tran Hung Dao / Lac Long Quan,10.834106,106.719228
251,Tan Station 251,10.833806,106.704694
252,Tran Hung Dao / Nguyen Binh Khiem,10.817701,106.704212
253,City Crossing 253,10.828954,106.729399
254,War Market 254,10.816306,106.713730
255,Vo Thi Sau Corner,10.834036,106.719936
256,Starlight Market 256,10.820376,106.709128
257,Nguyen Trai / Le Van Sy,10.824574,106.725256
258,Cach Mang Thang Tam / Vo Van Tan,10.824708,106.715967
259,Tan Bridge 259,10.825882,106.724620
260,Bay Corner 260,10.802554,106.717997
261,Le Duan / Luy Ban Bich,10.846807,106.629489
262,Nguyen Thi Minh Khai / Pham Hong Thai,10.833063,106.640368
263,District Corner 263,10.832525,106.637636
264,Ly Tu Trong Bridge,10.840984,106.635170
265,Cho Terminal 265,10.832871,106.633562
266,Tay Thanh / Luy Ban Bich,10.848177,106.632320
267,Reunification Underpass 267,10.819293,106.637781
268,Tran Phu / Do Xuan Hop,10.849365,106.643782
269,Ho Tung Mau / Co Giang,10.834759,106.637284
270,Reunification Crossing 270,10.833306,106.641898
271,Phan Xich Long / Tay Thanh,10.834507,106.646922
272,District Corner 272,10.844454,106.632805
273,Tan Bridge 273,10.835096,106.648815
274,Reunification Square 274,10.838554,106.634700
275,Do Xuan Hop Crossing,10.832181,106.624774
276,Le Lai / Nguyen Phi Khanh #1,10.834312,106.631288
277,Quang Trung Intersection,10.841771,106.642984
278,Ton Duc Thang / Bui Dinh Tuy,10.840054,106.642260
279,Hai Ba Trung Overpass,10.841401,106.622895
280,Co Bac / Cach Mang Thang Tam,10.832341,106.649618
281,Ba Thang Hai Underpass,10.847322,106.650811
282,Binh Terminal 282,10.831808,106.641095
283,Nguyen Thi Dieu Market,10.829147,106.629395
284,Phan Dang Luu Corner,10.840827,106.658674
285,An Station 285,10.834887,106.628592
286,Hoang Sa / Tay Thanh,10.831084,106.637802
287,City Market 287,10.843330,106.642591
288,Go Circle 288,10.850967,106.632894
289,Binh Square 289,10.843502,106.640333
290,Pasteur Station,10.851882,106.630097
291,Nguyen Dinh Chieu / Yersin,10.848337,106.641057
292,Xo Viet Nghe Tinh / Nguyen Trai,10.840531,106.644873
293,Mac Thi Buoi Underpass,10.843684,106.642959
294,Tran Hung Dao Circle,10.828564,106.640087
295,An Intersection 295,10.849612,106.633933
296,Bay Terminal 296,10.838624,106.640329
297,Saigon Junction 297,10.853474,106.643810
298,Pham Viet Chanh Station,10.832344,106.630237
299,District Overpass 299,10.846877,106.638028
300,Do Xuan Hop / Nguyen Van Linh,10.834627,106.629472
301,Notre Terminal 301,10.815571,106.636856
302,Tran Hung Dao / Pham Hong Thai,10.847034,106.640092
303,Bau Cat Crossing,10.841178,106.630812
304,Dong Khoi / Pham Hong Thai,10.841171,106.625032
305,Au Co / Tan Hoa Dong,10.825362,106.633774
306,Lac Long Quan / Hai Ba Trung,10.829527,106.627192
307,Nguyen Xien Station,10.840145,106.640178
308,Phan Dang Luu / Ho Tung Mau,10.849403,106.637271
309,Xo Viet Nghe Tinh Circle,10.830735,106.648862
310,Tran Phu Station,10.844852,106.643356
311,City Market 311,10.836684,106.642315
312,Turtle Bridge 312,10.839066,106.641258
313,Pham Ngu Lao / Nguyen Dinh Chieu,10.844459,106.637799
314,Turtle Square 314,10.836265,106.643865
315,Pham Hong Thai / Nguyen Son,10.836663,106.631035
316,Nguyen Thi Minh Khai Crossing,10.845824,106.637880
317,District Junction 317,10.835533,106.630767
318,Hai Ba Trung Square,10.846241,106.646506
319,Co Giang / Hoang Van Thu,10.852084,106.643649
320,City Corner 320,10.843937,106.638887
321,Le Lai / Ben Van Don,10.836411,106.639058
322,Pasteur Underpass,10.836869,106.643899
323,De Tham Circle,10.843193,106.646846
324,Nguyen Son / Ho Tung Mau,10.841365,106.625624
325,Mac Thi Buoi / Vo Van Tan,10.829400,106.620000
326,Binh Overpass 326,10.823067,106.643035
327,Phu Market 327,10.860000,106.633200
328,Hong Bang Square,10.823148,106.633540
329,Hoang Sa / Mac Thi Buoi,10.842001,106.628773
330,Ut Tich / Yersin,10.840192,106.647260
331,Ly Tu Trong / Le Duan,10.817053,106.642599
332,Do Xuan Hop Station,10.827905,106.667407
333,Tao Terminal 333,10.858588,106.647535
334,Truong Chinh Overpass,10.836288,106.631299
335,Bui Dinh Tuy / Nguyen Thi Minh Khai,10.827771,106.630790
336,Ly Chinh Thang / Nguyen Binh Khiem,10.844145,106.629524
337,Le Van Viet Circle,10.844659,106.635674
338,Landmark Circle 338,10.842860,106.632948
339,Binh Overpass 339,10.844214,106.642764
340,Tan Ky Tan Quy / Tay Thanh,10.848744,106.654584
341,Pasteur / Nguyen Dinh Chieu,10.829915,106.653430
342,Phu Bridge 342,10.850408,106.641183
343,Saigon Circle 343,10.829528,106.643669
344,Nguyen Tat Thanh / Tran Quoc Thao,10.835153,106.632675
345,Ton That Thuyet / Tan Hoa Dong,10.827711,106.641471
346,Le Quy Don / Nguyen Thai Hoc,10.832301,106.639571
347,Cong Hoa / Pham Ngu Lao,10.843599,106.637302
348,Nguyen Van Troi / Nguyen Trai,10.835642,106.646089
349,Nguyen Son / Ton That Thuyet,10.844850,106.641740
350,Nguyen Binh Khiem / Ut Tich,10.839589,106.653972
351,Nguyen Xien / Au Co,10.838478,106.632849
352,Binh Intersection 352,10.858493,106.640752
353,Le Trong Tan / Luy Ban Bich,10.837226,106.636691
354,Mac Thi Buoi / Huynh Van Banh,10.839186,106.638954
355,Nguyen Tat Thanh / Nam Ky Khoi Nghia,10.837500,106.624498
356,Phu Station 356,10.834656,106.635705
357,Tan Ky Tan Quy / Nguyen Son,10.825816,106.637591
358,Phan Van Tri / Cong Hoa,10.855373,106.652717
359,Nguyen Xien / Nguyen Tat Thanh,10.851856,106.632933
360,Xo Viet Nghe Tinh / Luy Ban Bich,10.836979,106.637953
361,Le Quy Don Square,10.842852,106.635223
362,Au Co Corner,10.830751,106.644855
363,Tan Circle 363,10.829873,106.637515
364,Bui Vien / Ton That Thuyet,10.837967,106.638185
365,Bau Cat Junction,10.827063,106.630785
366,Phu Bridge 366,10.834259,106.634359
367,Starlight Overpass 367,10.839780,106.640526
368,Nguyen Van Troi / Hai Ba Trung,10.836928,106.624370
369,Tran Phu / Le Quy Don,10.828261,106.632484
370,Bui Dinh Tuy / Nguyen Son,10.832210,106.641988
371,Nguyen Thi Minh Khai Underpass,10.853677,106.630174
372,Tan Hoa Dong / Do Xuan Hop,10.842941,106.642114
373,Saigon Corner 373,10.765826,106.644765
374,Huynh Van Banh Bridge,10.768658,106.627312
375,Tran Quoc Thao / Vo Thi Sau,10.760167,106.632748
376,Dam Corner 376,10.781820,106.620000
377,Nguyen Cong Tru Circle,10.769987,106.632053
378,Ben Van Don / Nguyen Thai Hoc,10.788828,106.639086
379,Nguyen Thai Hoc Terminal,10.778505,106.637132
380,Pham Van Dong / Ngo Duc Ke,10.772771,106.620000
381,Nguyen Son / Au Co,10.791433,106.625710
382,Vo Thi Sau Overpass,10.780336,106.633331
383,Luy Ban Bich / Ton Duc Thang,10.780558,106.634409
384,Ly Chinh Thang Station,10.778339,106.626804
385,District Circle 385,10.770711,106.620000
386,Ly Tu Trong Overpass,10.775178,106.641149
387,Hai Ba Trung Square #1,10.771315,106.626307
388,Hai Ba Trung Station,10.766894,106.638280
389,Pham Viet Chanh Junction #1,10.781376,106.625763
390,Xo Viet Nghe Tinh / Ho Tung Mau,10.790509,106.631358
391,Tan Market 391,10.769174,106.633996
392,Ly Chinh Thang / Lac Long Quan,10.775031,106.631799
393,Phan Van Tri / Pham Viet Chanh,10.772563,106.620529
394,Hong Bang / Nguyen Tat Thanh,10.767902,106.625193
395,Ton Duc Thang / Tran Quang Khai,10.784640,106.622231
396,Nguyen Hue Circle #1,10.789217,106.629708
397,Xo Viet Nghe Tinh / Tran Quoc Thao,10.773685,106.636569
398,Le Lai / Le Van Sy,10.771097,106.625587
399,Nguyen Tat Thanh / Bui Dinh Tuy,10.783873,106.632281
400,De Tham Overpass,10.794980,106.622981
401,Thu Square 401,10.785944,106.627390
402,Yersin Station,10.771431,106.631959
403,Dien Bien Phu Intersection,10.774907,106.620000
404,Do Xuan Hop Terminal,10.775598,106.621001
405,Bui Vien Junction,10.772699,106.629419
406,Pham Van Dong / Cach Mang Thang Tam,10.788368,106.620000
407,Phu Underpass 407,10.788197,106.644251
408,District Terminal 408,10.777135,106.629011
409,Landmark Terminal 409,10.785763,106.636866
410,Phan Xich Long / Nguyen Hue,10.776959,106.624680
411,Nguyen Thai Hoc / Le Duan #1,10.779885,106.620245
412,Luy Ban Bich Junction,10.777436,106.630033
413,Ton That Thuyet / Yersin,10.778998,106.635658
414,Co Bac Station #1,10.788009,106.630402
415,Mac Thi Buoi Overpass,10.798234,106.640726
416,Ben Van Don Market #1,10.782730,106.627661
417,Tran Hung Dao Circle #1,10.795626,106.646682
418,Notre Intersection 418,10.767756,106.633691
419,Bui Vien / Hai Ba Trung,10.780277,106.638128
420,Tran Hung Dao Intersection,10.783207,106.622990
421,Le Trong Tan / Nam Ky Khoi Nghia,10.781167,106.634305
422,Nguyen Thi Minh Khai Square,10.770920,106.634484
423,Ut Tich Corner,10.773553,106.630593
424,Le Van Sy Circle #1,10.767994,106.624314
425,Jade Circle 425,10.796779,106.620000
426,District Overpass 426,10.778556,106.640832
427,Nguyen Thai Hoc / Co Bac,10.775750,106.621566
428,District Circle 428,10.781726,106.623922
429,Thu Circle 429,10.770596,106.640147
430,Jade Market 430,10.777480,106.631389
431,Pham Van Dong / Phan Dang Luu,10.787850,106.634923
432,Cho Crossing 432,10.787542,106.633231
433,Cong Hoa Intersection,10.785295,106.643294
434,Le Loi / Dien Bien Phu,10.764153,106.632839
435,Tan Hoa Dong / Nguyen Van Troi,10.799053,106.622882
436,Le Van Sy / Truong Chinh,10.775981,106.620000
437,Le Lai / Nguyen Xien,10.768849,106.633190
438,Luy Ban Bich Corner,10.786802,106.624736
439,Tan Intersection 439,10.786773,106.626807
440,Phu Bridge 440,10.780083,106.629310
441,Nguyen Thi Dieu / Co Bac,10.778909,106.624181
442,Reunification Circle 442,10.774723,106.628204
443,Quang Trung Terminal,10.780939,106.621522
444,Nguyen Van Linh / Quang Trung,10.787161,106.643158
445,Nguyen Thi Minh Khai Market,10.786921,106.646120
446,Nam Ky Khoi Nghia Junction,10.795307,106.634022
447,Cach Mang Thang Tam / Le Loi,10.767052,106.638801
448,Hong Bang / Nguyen Son,10.781886,106.639412
449,Pham Van Dong / Truong Chinh,10.790181,106.624636
450,Pham Van Dong Circle,10.778915,106.631531
451,District Crossing 451,10.794731,106.632330
452,Tan Ky Tan Quy / Do Xuan Hop,10.788651,106.625951
453,Lac Long Quan Bridge,10.781067,106.627637
454,Nguyen Dinh Chieu / Hai Ba Trung,10.780690,106.643110
455,District Overpass 455,10.786665,106.635085
456,Turtle Overpass 456,10.785059,106.631046
457,Ton Duc Thang Market,10.756763,106.680580
458,Hoang Van Thu Terminal,10.759599,106.687863
459,District Market 459,10.752147,106.708685
460,Le Quy Don Junction,10.752642,106.689871
461,Ben Van Don Crossing,10.764878,106.688124
462,Notre Overpass 462,10.751408,106.700492
463,Mac Thi Buoi Underpass #1,10.760266,106.686327
464,Nam Ky Khoi Nghia Crossing #1,10.753024,106.681369
465,Nguyen Son / Le Trong Tan,10.740446,106.696559
466,Ngo Duc Ke / An Duong Vuong,10.743564,106.699009
467,Hung Vuong Square,10.747059,106.691117
468,Tan Ky Tan Quy / Pham Viet Chanh,10.749520,106.680042
469,Cach Mang Thang Tam / Co Bac,10.758308,106.678604
470,Le Quy Don Corner,10.751844,106.679661
471,Le Lai / Ngo Duc Ke,10.755189,106.691181
472,Landmark Market 472,10.757286,106.692723
473,Truong Chinh / Ly Tu Trong,10.750824,106.690383
474,Le Loi Circle,10.743053,106.682658
475,Cong Hoa Intersection #1,10.742634,106.697842
476,Mac Thi Buoi / Ngo Duc Ke,10.750161,106.688544
477,Hung Vuong / Nguyen Cong Tru,10.751604,106.699524
478,Phan Xich Long / Nguyen Van Troi,10.746451,106.695054
479,Nguyen Hue / Ben Van Don,10.747970,106.684751
480,Xo Viet Nghe Tinh Terminal,10.749050,106.700354
481,Le Trong Tan Square,10.747083,106.703347
482,Gia Corner 482,10.751159,106.701011
483,Hong Bang / Quang Trung,10.758089,106.697919
484,Nguyen Cong Tru / Ben Van Don,10.768226,106.687866
485,Nguyen Van Linh / Tran Quang Khai,10.742278,106.704591
486,Au Co Underpass,10.750342,106.681480
487,Le Duan Station,10.758136,106.704519
488,Phan Xich Long / Cach Mang Thang Tam,10.752511,106.686798
489,Le Trong Tan / Tan Hoa Dong,10.751490,106.676896
490,Ton That Thuyet Market,10.745949,106.685788
491,Pham Van Dong Bridge,10.775021,106.695490
492,Pham Hong Thai Square,10.752370,106.688102
493,Nguyen Tat Thanh Corner,10.753096,106.688754
494,Huynh Van Banh / Vo Thi Sau,10.762841,106.688860
495,Tan Intersection 495,10.744894,106.690026
496,Au Co Underpass #1,10.747037,106.693338
497,Pham Ngu Lao / Pham Viet Chanh,10.747190,106.690653
498,Nguyen Trai / Nguyen Thai Hoc,10.736894,106.700970
499,Tan Hoa Dong / Nguyen Thai Hoc,10.751205,106.698835
500,Saigon Crossing 500,10.746054,106.691957
501,Phan Van Tri / Pham Ngu Lao,10.750019,106.704538
502,Ly Chinh Thang / Xo Viet Nghe Tinh,10.760500,106.690071
503,Nguyen Tat Thanh / Bau Cat,10.735779,106.683264
504,Saigon Underpass 504,10.759129,106.701161
505,Notre Junction 505,10.750550,106.687189
506,Le Duan Bridge,10.753025,106.685462
507,Nguyen Binh Khiem / Hoang Sa,10.767565,106.700353
508,Do Xuan Hop Overpass,10.748528,106.692320
509,Bui Vien / Nguyen Thai Hoc,10.751470,106.697990
510,Tran Quoc Thao / Nguyen Son,10.749256,106.697771
511,Le Van Sy / Nguyen Phi Khanh,10.744468,106.684263
512,Co Giang / Ton That Thuyet,10.760287,106.695860
513,Dam Overpass 513,10.745948,106.684717
514,Nguyen Van Cu Market,10.737098,106.686499
515,An Duong Vuong / Tan Ky Tan Quy,10.757844,106.696399
516,Mac Thi Buoi / Phan Dang Luu,10.761670,106.693169
517,Dam Station 517,10.762760,106.671768
518,Quang Trung Square #1,10.751241,106.683071
519,Pham Viet Chanh Junction #2,10.756287,106.691669
520,Lac Long Quan / Hoang Van Thu,10.753003,106.700490
521,Go Bridge 521,10.753908,106.677057
522,Le Lai Market,10.764960,106.699762
523,Nguyen Van Linh Intersection,10.755576,106.688581
524,Nguyen Van Troi Circle #1,10.758260,106.690436
525,Ly Tu Trong / Tran Phu,10.755995,106.689225
526,Truong Sa Underpass,10.757198,106.687681
527,Bau Cat Station,10.748220,106.686774
528,Truong Sa / Nguyen Thi Minh Khai,10.756755,106.694459
529,District Corner 529,10.745627,106.686471
530,Binh Overpass 530,10.761147,106.689799
531,Hoang Dieu Junction,10.756268,106.686713
532,Le Thanh Ton / Nguyen Van Troi,10.770601,106.689916
533,Ben Van Don / Quang Trung,10.758828,106.696282
534,Notre Terminal 534,10.761643,106.699493
535,Nguyen Tat Thanh Market,10.767210,106.697178
536,Lac Long Quan Terminal,10.754533,106.678351
537,Ly Tu Trong Underpass,10.754286,106.691173
538,Phu Market 538,10.765731,106.688698
539,Phan Van Han Circle,10.737736,106.703262
540,Tan Bridge 540,10.751661,106.696536
541,Nam Ky Khoi Nghia Junction #1,10.763007,106.679397
542,Go Square 542,10.765899,106.698875
543,Tan Overpass 543,10.759741,106.689273
544,Ly Tu Trong Overpass #1,10.749331,106.706114
545,District Junction 545,10.752426,106.693226
546,Thu Station 546,10.749116,106.694816
547,Tan Hoa Dong / Vo Van Tan,10.747566,106.680333
548,Ben Junction 548,10.758399,106.694917
549,Le Hong Phong Underpass,10.749605,106.676782
550,Pham Ngu Lao / Le Quy Don,10.756617,106.692939
551,Mac Thi Buoi / Nguyen Trai,10.750006,106.695663
552,District Terminal 552,10.763909,106.694966
553,Hoang Dieu Bridge,10.751260,106.695131
554,Ton Duc Thang / Mac Thi Buoi,10.748392,106.676055
555,Le Hong Phong / Le Quy Don,10.754712,106.679999
556,Binh Market 556,10.756089,106.684838
557,Pasteur / Tran Quoc Thao,10.744252,106.683095
558,Ben Van Don / Pham Viet Chanh,10.757569,106.701182
559,Le Van Sy Terminal,10.746048,106.679549
560,Phu Market 560,10.750069,106.694580
561,Le Quy Don / Le Thanh Ton,10.755502,106.689872
562,Saigon Overpass 562,10.742964,106.700652
563,Vo Van Tan Junction #1,10.758759,106.698661
564,Nguyen Thi Minh Khai / Ben Van Don,10.753411,106.689979
565,Jade Station 565,10.743299,106.690207
566,Bay Square 566,10.753559,106.687507
567,Phu Square 567,10.753365,106.697463
568,Phu Circle 568,10.746792,106.688870
569,Nguyen Thi Minh Khai Intersection #1,10.750446,106.678397
570,Hang Junction 570,10.761867,106.695079
571,De Tham Junction,10.749757,106.702935
572,Nguyen Thai Hoc / Le Van Viet,10.751296,106.678668
573,Yersin / Le Thanh Ton,10.739760,106.689068
574,De Tham Junction #1,10.754526,106.674408
575,Tan Underpass 575,10.750235,106.697968
576,Binh Corner 576,10.741449,106.650298
577,Ly Chinh Thang / Phan Xich Long,10.745237,106.657462
578,Go Intersection 578,10.732820,106.635277
579,Le Loi Intersection,10.730310,106.651481
580,Nguyen Van Cu Junction,10.737639,106.654222
581,Ton That Thuyet Intersection,10.720000,106.646276
582,Ngo Duc Ke Crossing,10.726724,106.659524
583,District Square 583,10.726710,106.650301
584,Nguyen Tat Thanh / Le Duan,10.731959,106.661552
585,Nguyen Phi Khanh Corner,10.741827,106.640854
586,Pham Viet Chanh / Hoang Van Thu,10.737911,106.656618
587,Yersin / Au Co,10.733167,106.639238
588,Nguyen Van Linh Intersection #1,10.757881,106.647133
589,Nguyen Van Linh / Nguyen Thai Hoc,10.741205,106.667116
590,Xo Viet Nghe Tinh / Nguyen Hue,10.722263,106.642777
591,Nguyen Phi Khanh Crossing,10.730779,106.644293
592,District Square 592,10.736693,106.674010
593,Le Van Viet Station,10.729500,106.648620
594,Nguyen Dinh Chieu Bridge,10.727996,106.644696
595,Vo Van Tan Bridge,10.733877,106.654474
596,Le Van Sy Circle #2,10.722560,106.648520
597,Nguyen Binh Khiem Corner,10.729863,106.658996
598,Mac Thi Buoi Bridge,10.724763,106.653760
599,Saigon Station 599,10.733272,106.654445
600,An Duong Vuong Circle,10.735813,106.657237
601,Tran Quoc Thao / Tay Thanh,10.720000,106.655626
602,Ly Tu Trong / Nguyen Van Troi,10.745068,106.655867
603,Tran Quoc Thao / Huynh Van Banh,10.738222,106.650468
604,An Duong Vuong Market,10.732451,106.647581
605,Tan Crossing 605,10.730270,106.645988
606,Le Thanh Ton Intersection,10.745371,106.653185
607,Binh Bridge 607,10.733791,106.645146
608,Le Duan / Hoang Sa,10.720000,106.642850
609,Xo Viet Nghe Tinh / De Tham,10.737429,106.647074
610,Ut Tich / Hung Vuong,10.738920,106.654411
611,Dien Bien Phu / Tran Quang Khai,10.742266,106.654288
612,Nguyen Son / Tan Ky Tan Quy,10.728984,106.660641
613,Landmark Terminal 613,10.721776,106.644309
614,Hoang Sa / Do Xuan Hop,10.736355,106.654477
615,Saigon Station 615,10.730481,106.677680
616,Dam Corner 616,10.731847,106.644658
617,Tran Quang Khai / Pasteur,10.738408,106.647124
618,Nguyen Cong Tru Junction,10.727984,106.657160
619,Tan Son Nhi / Nguyen Thi Dieu,10.733599,106.643623
620,District Market 620,10.733969,106.651455
621,Vo Thi Sau / Ut Tich,10.737569,106.635720
622,Nguyen Van Cu / Le Van Sy,10.738490,106.640307
623,Phu Junction 623,10.720000,106.644095
624,Phan Van Han Market,10.744779,106.647199
625,Nguyen Thi Dieu / Tay Thanh,10.726975,106.660711
626,Le Thanh Ton / Phan Van Tri,10.748231,106.652130
627,Nguyen Binh Khiem Junction,10.726646,106.634513
628,Bui Vien Market,10.740876,106.653513
629,Ben Van Don / Au Co #1,10.743376,106.636434
630,Ly Chinh Thang / Hung Vuong,10.735803,106.656075
631,District Underpass 631,10.735632,106.632402
632,Pham Hong Thai Intersection,10.742411,106.649653
633,Pham Viet Chanh / Le Thanh Ton,10.722911,106.639390
634,Ut Tich Station,10.730554,106.652485
635,District Bridge 635,10.738468,106.640982
636,Tan Crossing 636,10.724295,106.665290
637,Le Van Sy Corner,10.734404,106.650347
638,Ly Tu Trong Underpass #1,10.735164,106.651518
639,Le Loi / Huynh Van Banh,10.724115,106.640720
640,Pham Ngu Lao / Nguyen Hue,10.733425,106.663959
641,Notre Corner 641,10.726120,106.654388
642,Tan Overpass 642,10.726797,106.650998
643,Cho Circle 643,10.730640,106.646341
644,Phan Van Tri / Ba Thang Hai,10.736518,106.652837
645,Ly Tu Trong / Phan Van Tri,10.733955,106.648986
646,Saigon Station 646,10.721181,106.645908
647,Truong Chinh / Nguyen Van Linh,10.734709,106.655278
648,Nam Ky Khoi Nghia / Ben Van Don,10.729721,106.658529
649,Le Lai / Nguyen Hue,10.720000,106.645380
650,Hang Terminal 650,10.724340,106.654990
651,Pham Viet Chanh / Nguyen Dinh Chieu,10.730912,106.653790
652,Luy Ban Bich Terminal,10.726434,106.652709
653,Notre Square 653,10.735301,106.648202
654,Dong Khoi / Huynh Van Banh,10.724939,106.657735
655,Hoang Van Thu Junction,10.724531,106.654366
656,Nguyen Thai Hoc / Nguyen Van Linh,10.737534,106.662099
657,Nguyen Thi Minh Khai / Co Giang,10.720000,106.658972
658,Gia Bridge 658,10.733815,106.644479
659,Hai Ba Trung / Bui Dinh Tuy,10.737041,106.645894
660,Bay Square 660,10.721645,106.647878
661,Ba Thang Hai / Dien Bien Phu,10.740139,106.661285
662,Turtle Intersection 662,10.731836,106.648176
663,Huynh Van Banh Corner,10.741581,106.651861
664,Co Giang / Cong Hoa,10.823902,106.686239
665,Lac Long Quan / Le Loi,10.803205,106.699936
666,Jade Crossing 666,10.811429,106.684781
667,Thu Crossing 667,10.804993,106.697983
668,Pham Van Dong / Nguyen Thai Hoc,10.805477,106.694246
669,Tan Bridge 669,10.813396,106.691313
670,Bay Bridge 670,10.804037,106.696492
671,Xo Viet Nghe Tinh / Le Van Sy,10.805470,106.688308
672,Yersin / Tran Hung Dao,10.817538,106.698431
673,Quang Trung / Ton Duc Thang,10.801431,106.707764
674,Tran Phu / Nguyen Binh Khiem,10.814554,106.694673
675,District Terminal 675,10.807874,106.703908
676,Le Van Viet Corner,10.812467,106.710137
677,Nguyen Phi Khanh / Bui Dinh Tuy,10.813040,106.686978
678,Tan Junction 678,10.797442,106.703610
679,Nguyen Thi Minh Khai / Nguyen Van Troi,10.816410,106.710145
680,Hoang Sa / Nguyen Cong Tru,10.811407,106.696194
681,De Tham / Pasteur,10.802835,106.702241
682,Gia Bridge 682,10.809355,106.704918
683,Huynh Van Banh Underpass,10.801915,106.693333
684,Nam Ky Khoi Nghia / Ly Chinh Thang,10.810580,106.692620
685,Vo Thi Sau / Truong Sa,10.817334,106.684602
686,Le Loi Terminal,10.822703,106.697413
687,Ben Intersection 687,10.818697,106.689567
688,Nguyen Cong Tru / Le Hong Phong,10.808668,106.710128
689,Phu Terminal 689,10.821262,106.686122
690,Phu Crossing 690,10.805763,106.704848
691,Yersin Market,10.839772,106.697090
692,Pham Ngu Lao / Tan Hoa Dong,10.802294,106.686901
693,Tran Quoc Thao / Phan Dang Luu,10.798792,106.683368
694,Le Trong Tan Station,10.816899,106.706681
695,Phan Van Han Circle #1,10.802442,106.685434
696,Hai Ba Trung / Tan Son Nhi,10.808392,106.703979
697,Vo Thi Sau / Pham Van Dong,10.806171,106.685599
698,Pham Hong Thai Market,10.803016,106.688719
699,Landmark Square 699,10.807371,106.700305
700,Cong Hoa Square,10.806434,106.704348
701,Thu Corner 701,10.825093,106.690048
702,Reunification Corner 702,10.811588,106.711640
703,Luy Ban Bich Junction #1,10.808443,106.702324
704,Vo Van Tan Terminal,10.815958,106.687781
705,Co Bac Market,10.816126,106.689628
706,Mac Thi Buoi Intersection,10.808087,106.698208
707,Lac Long Quan Square,10.795898,106.715388
708,Quang Trung Corner,10.803746,106.707262
709,Ben Terminal 709,10.805493,106.692002
710,Ly Chinh Thang / Quang Trung,10.806891,106.709054
711,Hung Vuong / Hong Bang,10.811939,106.682085
712,Ben Junction 712,10.801235,106.699297
713,Nguyen Binh Khiem Market,10.796218,106.692933
714,Binh Intersection 714,10.813271,106.706857
715,Co Giang / Bui Dinh Tuy,10.806331,106.688770
716,Tran Quoc Thao Circle #1,10.804780,106.693105
717,Turtle Overpass 717,10.799558,106.698314
718,Pham Hong Thai Intersection #1,10.816212,106.695454
719,Tran Hung Dao Intersection #1,10.817770,106.710661
720,Tran Hung Dao / Au Co,10.812606,106.718525
721,Hai Ba Trung Station #1,10.804786,106.695543
722,Pham Ngu Lao Overpass,10.806420,106.695116
723,Tran Phu / Co Bac,10.810181,106.693506
724,Truong Sa Underpass #1,10.813241,106.699942
725,Thu Overpass 725,10.808456,106.694657
726,Ton That Thuyet Crossing,10.797805,106.694241
727,Pham Ngu Lao / Phan Van Han,10.797821,106.694856
728,Le Van Viet / Hoang Sa,10.810579,106.700728
729,Truong Chinh / Phan Van Han,10.803732,106.702060
730,Binh Junction 730,10.819212,106.689141
731,Ut Tich / Phan Van Han,10.812329,106.695939
732,Thu Circle 732,10.810944,106.698464
733,Nguyen Van Cu / Dong Khoi,10.815087,106.694772
734,Turtle Underpass 734,10.813416,106.689609
735,Le Loi Square,10.820541,106.706057
736,Tran Phu / Tan Ky Tan Quy,10.806352,106.691478
737,Phan Van Tri / Tran Quang Khai,10.807393,106.708579
738,Notre Underpass 738,10.814993,106.700968
739,District Crossing 739,10.763260,106.689673
740,Ly Chinh Thang Crossing,10.763443,106.710775
741,Tran Phu Square,10.745536,106.706632
742,Tan Terminal 742,10.744136,106.692296
743,Cho Crossing 743,10.758212,106.699369
744,Do Xuan Hop Underpass,10.754269,106.708178
745,Phan Van Tri Market,10.745627,106.696466
746,Nguyen Van Troi / Tan Hoa Dong,10.742482,106.699450
747,Cong Hoa / Nguyen Son,10.747975,106.711153
748,Luy Ban Bich / Phan Van Han,10.765595,106.705110
749,Binh Corner 749,10.756927,106.698939
750,Co Bac / Nguyen Tat Thanh,10.757302,106.700768
751,Tan Terminal 751,10.756102,106.698289
752,Phan Van Han / Tran Hung Dao,10.762773,106.706184
753,Ben Crossing 753,10.761368,106.706206
754,Binh Market 754,10.760111,106.681395
755,Le Lai Junction,10.757972,106.712748
756,Tan Ky Tan Quy / Le Trong Tan,10.761044,106.687149
757,Bui Vien Crossing,10.743236,106.703214
758,Hong Bang / Pham Viet Chanh,10.755107,106.695592
759,Ba Thang Hai / Phan Van Han,10.747379,106.698962
760,Pham Ngu Lao Circle,10.762849,106.711063
761,Ben Van Don Intersection,10.750820,106.697940
762,Pham Ngu Lao Station,10.741329,106.704967
763,Go Terminal 763,10.765626,106.704511
764,Dam Junction 764,10.744483,106.704071
765,Tan Son Nhi Terminal,10.752297,106.700769
766,Tan Son Nhi Square,10.767175,106.694868
767,Le Trong Tan / Tay Thanh,10.754263,106.697085
768,Nguyen Van Troi Circle #2,10.738074,106.716035
769,Mac Thi Buoi / Hoang Dieu,10.748903,106.705635
770,Landmark Corner 770,10.741433,106.691226
771,District Intersection 771,10.750331,106.683050
772,Le Thanh Ton / Nguyen Van Cu,10.750064,106.696585
773,Bui Vien / Pham Hong Thai,10.742462,106.700946
774,Ton That Thuyet Overpass,10.744997,106.697213
775,Le Hong Phong / Le Loi,10.754570,106.685897
776,Nguyen Thi Minh Khai / Hoang Sa,10.752984,106.700990
777,Phan Xich Long Square,10.753281,106.715206
778,Nguyen Van Linh / Hai Ba Trung,10.761301,106.690876
779,Landmark Intersection 779,10.749234,106.708060
780,Ho Tung Mau Underpass #1,10.755867,106.715217
781,Le Quy Don / Truong Chinh,10.745421,106.685544
782,Tran Phu / Vo Thi Sau,10.767229,106.705625
783,Phu Market 783,10.765387,106.694652
784,Phan Dang Luu Circle,10.754392,106.695970
785,Nguyen Van Cu / Nguyen Xien,10.733037,106.708490
786,Huynh Van Banh / Le Thanh Ton,10.756462,106.702818
787,Au Co / Cach Mang Thang Tam,10.762991,106.714362
788,Bay Overpass 788,10.772582,106.705812
789,Phu Underpass 789,10.750311,106.714656
790,Le Duan / Bui Dinh Tuy,10.752443,106.706382
791,Opera Intersection 791,10.760174,106.709680
792,Pham Viet Chanh / Dien Bien Phu,10.763551,106.693352
793,Landmark Overpass 793,10.765342,106.697837
794,Bay Bridge 794,10.766653,106.701905
795,Co Bac Crossing,10.754864,106.703528
796,Le Van Viet / Yersin,10.747258,106.707802
797,An Overpass 797,10.745276,106.700391
798,Ba Thang Hai Market,10.758171,106.710236
799,Le Hong Phong / Pham Ngu Lao,10.757526,106.712181
800,Hung Vuong Overpass,10.758916,106.715695
801,Hai Ba Trung Crossing,10.754089,106.699633
802,Vo Van Tan / Ut Tich,10.759263,106.703472
803,Tao Overpass 803,10.762429,106.685403
804,De Tham / Pham Van Dong,10.749018,106.705190
805,Tan Son Nhi / Dong Khoi,10.767537,106.701721
806,Pham Ngu Lao Circle #1,10.753832,106.698288
807,Tran Phu / Co Bac #1,10.756332,106.694654
808,Saigon Intersection 808,10.745476,106.708450
809,Nguyen Van Linh Circle,10.759992,106.707269
810,City Junction 810,10.759099,106.700141
811,Nguyen Hue / Ut Tich,10.745165,106.697888
812,Nguyen Phi Khanh Intersection,10.746621,106.695581
813,Hoang Dieu / Nguyen Xien,10.754590,106.683947
814,Tan Intersection 814,10.757966,106.705228
815,District Market 815,10.763742,106.709115
816,Le Duan / Phan Xich Long,10.744968,106.703683
817,Reunification Corner 817,10.765269,106.708692
818,Tan Ky Tan Quy / Le Duan,10.762865,106.709671
819,Bay Overpass 819,10.760439,106.697139
820,City Corner 820,10.751143,106.711204
821,Hung Vuong Circle,10.749344,106.714195
822,Tan Hoa Dong Terminal,10.757080,106.697621
823,Thu Square 823,10.741769,106.705897
824,Mac Thi Buoi / Pham Van Dong,10.752757,106.698626
825,Phu Junction 825,10.759073,106.713528
826,Tan Son Nhi Station,10.761397,106.692083
827,Nguyen Van Linh Terminal,10.760828,106.702667
828,Au Co / Pham Viet Chanh,10.752199,106.697511
829,Le Lai / Bui Dinh Tuy,10.761064,106.708280
830,Nguyen Son Overpass,10.760673,106.701641
831,District Bridge 831,10.759625,106.709547
832,Tan Hoa Dong Corner,10.765913,106.697529
833,Huynh Van Banh / Yersin,10.767886,106.704650
834,City Station 834,10.755967,106.713077
835,Nguyen Binh Khiem / Pham Ngu Lao,10.746125,106.702916
836,Huynh Van Banh Bridge #1,10.751992,106.691943
837,City Bridge 837,10.750022,106.699887
838,Notre Intersection 838,10.746102,106.688767
839,Quang Trung Terminal #1,10.747351,106.700481
840,Tran Phu Square #1,10.755474,106.700648
841,Cach Mang Thang Tam / Tran Quang Khai,10.755981,106.710789
842,Nguyen Thi Dieu Station,10.760746,106.710319
843,Ly Chinh Thang / Hoang Dieu,10.745704,106.702306
844,District Square 844,10.757128,106.701581
845,District Square 845,10.753222,106.699603
846,Le Trong Tan Bridge,10.754514,106.706281
847,Ho Tung Mau Crossing,10.744117,106.688749
848,Gia Square 848,10.757052,106.711934
849,Tan Son Nhi / Tran Quang Khai,10.756350,106.709324
850,Phan Van Tri / Lac Long Quan,10.747935,106.694559
851,Le Thanh Ton / Pham Ngu Lao,10.752293,106.699525
852,Ton That Thuyet Square,10.764453,106.702258
853,Ly Tu Trong Terminal,10.761860,106.694404
854,Hung Vuong Market,10.754395,106.701152
855,Turtle Intersection 855,10.740450,106.709043
856,Nguyen Thai Hoc Bridge,10.763275,106.697785
857,Ut Tich Crossing,10.760654,106.684796
858,Nguyen Dinh Chieu Circle,10.749304,106.704014
859,Nguyen Hue Bridge,10.754734,106.702084
860,Truong Sa / Le Quy Don,10.745183,106.699880
861,Phu Circle 861,10.751583,106.703306
862,Bay Circle 862,10.754072,106.711138
863,Truong Chinh / Cong Hoa,10.837030,106.627404
864,Tan Circle 864,10.821342,106.628665
865,Mac Thi Buoi / De Tham,10.816797,106.621349
866,District Crossing 866,10.828869,106.620000
867,Truong Chinh / Nguyen Son,10.830781,106.635711
868,Hong Bang / Nguyen Hue,10.824896,106.620000
869,Hang Station 869,10.833978,106.620000
870,Nguyen Tat Thanh Bridge,10.821441,106.635772
871,Nguyen Thi Minh Khai Square #1,10.825334,106.622355
872,Le Van Viet / Ho Tung Mau,10.823518,106.621181
873,Thu Bridge 873,10.833753,106.640988
874,Nguyen Hue / Ly Chinh Thang,10.830039,106.629715
875,District Market 875,10.819380,106.634852
876,Truong Chinh Circle,10.841407,106.629022
877,Opera Circle 877,10.827459,106.620000
878,War Bridge 878,10.832037,106.648139
879,Landmark Crossing 879,10.833949,106.627964
880,Pham Van Dong / Ut Tich,10.836109,106.634258
881,Tan Hoa Dong / Nguyen Van Troi #1,10.828981,106.636470
882,Le Bridge 882,10.829946,106.620000
883,Co Bac / Hong Bang,10.834926,106.620824
884,Le Quy Don Station #1,10.830346,106.622340
885,Huynh Van Banh / Nguyen Van Troi,10.838257,106.625154
886,Phan Van Tri Crossing,10.827114,106.635670
887,Dien Bien Phu / Ut Tich,10.824264,106.626133
888,District Terminal 888,10.826669,106.647078
889,Huynh Van Banh / Truong Sa,10.828515,106.621984
890,Pham Hong Thai Square #1,10.830966,106.642874
891,Phan Van Han / Nguyen Son,10.829719,106.623843
892,Tan Hoa Dong Corner #1,10.844755,106.628475
893,Ut Tich Circle #1,10.822224,106.621414
894,Ut Tich / Le Thanh Ton,10.834594,106.624552
895,Saigon Junction 895,10.842503,106.632603
896,Le Van Viet Terminal,10.827057,106.623251
897,Notre Bridge 897,10.828571,106.628772
898,Ngo Duc Ke / Luy Ban Bich,10.832317,106.623889
899,Le Hong Phong / Truong Sa,10.836075,106.625929
900,Nguyen Tat Thanh / Nguyen Cong Tru,10.817315,106.634323
901,Ngo Duc Ke Intersection,10.841062,106.626237
902,Cach Mang Thang Tam / Luy Ban Bich,10.814173,106.622449
903,Starlight Market 903,10.830697,106.623134
904,Cong Hoa / Hoang Van Thu,10.826407,106.620000
905,Dien Bien Phu / Phan Xich Long,10.832478,106.628897
906,Reunification Circle 906,10.817832,106.629475
907,Phan Xich Long Corner,10.822403,106.635682
908,Tay Thanh Intersection,10.833024,106.628324
909,An Corner 909,10.818723,106.622437
910,An Duong Vuong Crossing,10.824643,106.636336
911,Phan Van Tri / Ton That Thuyet,10.825960,106.624524
912,Vo Van Tan Crossing #1,10.821918,106.620168
913,Pham Viet Chanh / Ngo Duc Ke,10.832012,106.632719
914,Le Lai Underpass,10.822658,106.622884
915,District Junction 915,10.811247,106.620000
916,Nguyen Dinh Chieu / Truong Sa,10.833124,106.631957
917,Luy Ban Bich / Truong Chinh,10.830848,106.631052
918,Binh Crossing 918,10.841945,106.632376
919,Nguyen Van Troi / Ho Tung Mau,10.819613,106.620000
920,District Junction 920,10.825091,106.629273
921,Luy Ban Bich Terminal #1,10.836322,106.629466
922,Tran Phu / Mac Thi Buoi,10.838843,106.626257
923,Tan Station 923,10.833765,106.637498
924,Nguyen Thai Hoc / Tan Hoa Dong,10.817684,106.626140
925,City Station 925,10.814976,106.624252
926,Mac Thi Buoi / Nguyen Thai Hoc,10.828569,106.634611
927,Dam Terminal 927,10.826721,106.637457
928,Le Trong Tan Intersection,10.824807,106.640794
929,Cong Hoa / Hung Vuong,10.831909,106.620000
930,Co Giang Station,10.825219,106.630752
931,Starlight Bridge 931,10.829585,106.631014
932,Pham Van Dong / Ngo Duc Ke #1,10.833290,106.620000
933,Pham Viet Chanh / Bui Vien,10.815599,106.635977
934,Tran Hung Dao / Cach Mang Thang Tam,10.827440,106.638882
935,Pham Ngu Lao / Ho Tung Mau,10.838410,106.630856
936,Nguyen Thi Dieu Crossing,10.827463,106.640406
937,Cho Corner 937,10.837601,106.620000
938,Ngo Duc Ke / Ben Van Don,10.840662,106.634258
939,Phan Xich Long / Co Bac,10.837113,106.631729
940,Nguyen Van Troi Station,10.830915,106.624222
941,Thu Market 941,10.828826,106.625736
942,Nguyen Phi Khanh / Nguyen Binh Khiem #1,10.826234,106.623093
943,Truong Chinh Market,10.836003,106.638661
944,Le Lai / Nam Ky Khoi Nghia,10.835585,106.634182
945,Hong Bang / Hung Vuong,10.832661,106.623582
946,De Tham / Ben Van Don,10.826803,106.632140
947,Luy Ban Bich / Le Trong Tan,10.828794,106.713926
948,Phan Van Han / Ly Tu Trong,10.836252,106.726322
949,Bau Cat Junction #1,10.825685,106.708275
950,Pham Ngu Lao Square,10.839238,106.719186
951,Opera Terminal 951,10.821571,106.715498
952,Mac Thi Buoi / Phan Xich Long #1,10.828358,106.713313
953,An Market 953,10.835947,106.709484
954,Nguyen Thai Hoc / Nguyen Binh Khiem,10.826838,106.710060
955,Truong Chinh Square,10.827825,106.708584
956,Huynh Van Banh / Nguyen Van Linh,10.832749,106.716913
957,Notre Underpass 957,10.828329,106.715191
958,Tan Ky Tan Quy Intersection,10.829146,106.716395
959,Co Giang Intersection,10.827290,106.717579
960,Bay Circle 960,10.819254,106.713551
961,Le Van Viet / Le Duan,10.823490,106.725244
962,Hai Ba Trung / Hoang Sa,10.846679,106.720087
963,Co Giang / Quang Trung,10.832615,106.718217
964,Le Lai / Vo Thi Sau,10.816260,106.712957
965,Truong Sa Overpass #1,10.826121,106.713071
966,Hong Bang / Nguyen Thi Minh Khai,10.811757,106.715872
967,Yersin Underpass,10.820062,106.725085
968,Vo Van Tan Intersection,10.815724,106.712604
969,Pham Van Dong Station,10.832039,106.714079
970,Bau Cat / Nguyen Van Cu,10.832164,106.724045
971,Hong Bang Bridge,10.818990,106.711296
972,Thu Square 972,10.822971,106.721867
973,Hang Terminal 973,10.816827,106.714620
974,Saigon Corner 974,10.844310,106.707963
975,Nguyen Binh Khiem Bridge,10.818878,106.720895
976,Truong Chinh / Phan Xich Long,10.829119,106.724997
977,Mac Thi Buoi / Tran Quoc Thao,10.834924,106.716380
978,Le Quy Don / Tran Hung Dao,10.851589,106.715918
979,Truong Chinh Market #1,10.831118,106.695971
980,Hai Ba Trung / Lac Long Quan,10.811412,106.708640
981,Tan Son Nhi / Nguyen Van Troi,10.825843,106.718405
982,Nguyen Tat Thanh / Hoang Van Thu,10.830091,106.729487
983,Tan Hoa Dong Square,10.839862,106.708540
984,Ton Duc Thang Bridge,10.811448,106.716226
985,Co Bac Crossing #1,10.827150,106.713245
986,Hung Vuong / Ton That Thuyet,10.831932,106.697224
987,Tay Thanh Junction,10.832205,106.713245
988,Hoang Van Thu / Cach Mang Thang Tam,10.837728,106.718219
989,Ben Van Don / An Duong Vuong,10.822788,106.725927
990,Hung Vuong / Pham Viet Chanh,10.828720,106.704498
991,Luy Ban Bich / Ut Tich,10.829559,106.710555
992,Nguyen Tat Thanh / Bui Dinh Tuy #1,10.828236,106.704886
993,Tan Hoa Dong Market,10.817189,106.719918
994,Landmark Bridge 994,10.831103,106.722567
995,Ngo Duc Ke / Hung Vuong,10.838283,106.714787
996,Hoang Dieu / Le Hong Phong,10.820447,106.731235
997,Pasteur / Nguyen Phi Khanh,10.825087,106.718861
998,Tran Phu Bridge,10.832139,106.721453
999,Hoang Sa Overpass,10.830009,106.716889
1000,Bui Vien Underpass,10.819079,106.724561
1001,Ho Tung Mau Junction,10.846912,106.721522
1002,Luy Ban Bich / Tran Hung Dao,10.820542,106.727004
1003,Nguyen Van Linh / Le Van Viet,10.822072,106.726397
1004,Saigon Station 1004,10.810669,106.697535
1005,Ba Thang Hai / Nguyen Thi Minh Khai,10.818295,106.709083
1006,District Terminal 1006,10.825539,106.728761
1007,Ngo Duc Ke / Le Lai,10.827950,106.714110
1008,Co Giang Intersection #1,10.829566,106.713783
1009,Le Quy Don Terminal,10.837992,106.713758
1010,Bui Dinh Tuy / Lac Long Quan,10.835131,106.707648
1011,Quang Trung / Ben Van Don,10.846055,106.719435
1012,Nguyen Cong Tru Junction #1,10.819951,106.740123
1013,Pasteur Market,10.816972,106.703289
1014,Ben Van Don / Mac Thi Buoi,10.833964,106.713168
1015,Nguyen Son Overpass #1,10.835220,106.719080
1016,Turtle Circle 1016,10.825304,106.707303
1017,Phu Overpass 1017,10.834564,106.711124
1018,Mac Thi Buoi Circle,10.834969,106.722605
1019,Hung Vuong Square #1,10.822085,106.699109
1020,Le Duan / Cong Hoa,10.822799,106.706385
1021,Pasteur / Le Quy Don,10.834687,106.728977
1022,Tao Underpass 1022,10.834568,106.709308
1023,Pham Ngu Lao Square #1,10.834378,106.712360
1024,District Bridge 1024,10.833940,106.727405
1025,Pasteur / Pham Hong Thai,10.823243,106.712595
1026,Tay Thanh / Luy Ban Bich #1,10.840752,106.721630
1027,Quang Trung Terminal #2,10.826703,106.707442
1028,Le Loi / Ngo Duc Ke,10.831938,106.718953
1029,Nguyen Van Cu / Tran Phu,10.825978,106.710223
1030,Lac Long Quan / Nguyen Van Troi,10.834765,106.708085
1031,Notre Underpass 1031,10.816100,106.721051
1032,Cho Market 1032,10.828025,106.704239
1033,Nguyen Van Troi Market,10.835368,106.720571
1034,Co Giang / Le Van Viet,10.806203,106.709550
1035,Tran Phu / Ben Van Don,10.830484,106.694550
1036,Ba Thang Hai / Le Hong Phong,10.838843,106.705807
1037,District Terminal 1037,10.823592,106.732209
1038,Bui Vien Square,10.832753,106.707277
1039,Tan Station 1039,10.831919,106.696415
1040,Au Co / Hoang Sa,10.821034,106.719493
1041,Ly Chinh Thang / De Tham,10.831106,106.712626
1042,Binh Market 1042,10.839055,106.721754
1043,Nguyen Son Square,10.825115,106.702538
1044,Xo Viet Nghe Tinh Bridge,10.822870,106.720373
1045,Nguyen Trai / Nguyen Van Cu,10.839541,106.703435
1046,An Duong Vuong / Ho Tung Mau,10.828845,106.712388
1047,Hoang Sa / Nguyen Hue,10.825730,106.712111
1048,Dam Market 1048,10.824146,106.710711
1049,Phu Bridge 1049,10.832400,106.704723
1050,Hang Bridge 1050,10.823795,106.707553
1051,Bau Cat / Cong Hoa,10.845064,106.715649
1052,Nguyen Thi Minh Khai / Nguyen Thai Hoc,10.830861,106.710029
1053,Hang Circle 1053,10.843806,106.718553
1054,Nguyen Van Cu / Ly Chinh Thang,10.826861,106.717958
1055,Nguyen Van Cu Terminal,10.824669,106.704928
1056,Tran Quoc Thao / Nguyen Binh Khiem,10.828502,106.707405
1057,Le Hong Phong / Truong Chinh,10.823239,106.720705
1058,Nguyen Cong Tru / Xo Viet Nghe Tinh,10.836818,106.718546
1059,Binh Terminal 1059,10.838540,106.723171
1060,Ho Tung Mau Station,10.826765,106.704209
1061,Bay Corner 1061,10.823124,106.710556
1062,Dam Terminal 1062,10.838438,106.710083
1063,Pham Viet Chanh / Phan Dang Luu,10.834446,106.699461
1064,Go Underpass 1064,10.830296,106.714983
1065,Hoang Dieu Junction #1,10.836823,106.703260
1066,Ben Overpass 1066,10.823379,106.723834
1067,Nguyen Phi Khanh Circle,10.830498,106.721169
1068,Xo Viet Nghe Tinh / Phan Van Tri,10.821461,106.714668
1069,Nguyen Van Cu Intersection,10.820291,106.721272
1070,Gia Junction 1070,10.825013,106.721321
1071,Saigon Corner 1071,10.822943,106.707698
1072,Nguyen Thi Minh Khai Market #1,10.755601,106.650019
1073,Pham Van Dong / Tran Hung Dao,10.765950,106.658832
1074,Pham Hong Thai Crossing,10.773026,106.658343
1075,Co Bac / Bau Cat,10.776244,106.645359
1076,District Bridge 1076,10.765163,106.645561
1077,Le Quy Don / Hai Ba Trung,10.780243,106.655950
1078,Yersin Terminal,10.769412,106.649968
1079,District Crossing 1079,10.773123,106.640627
1080,Gia Market 1080,10.770917,106.649959
1081,Starlight Circle 1081,10.774007,106.652600
1082,Le Van Viet Overpass,10.770582,106.642198
1083,Co Giang / Le Van Viet #1,10.775288,106.646343
1084,Le Trong Tan / Ly Tu Trong,10.775027,106.651184
1085,Nguyen Phi Khanh / Tran Hung Dao,10.761485,106.661125
1086,Nguyen Binh Khiem Intersection,10.763757,106.643350
1087,Tran Phu / De Tham,10.772146,106.652614
1088,Tan Ky Tan Quy / Cong Hoa,10.769207,106.651227
1089,Le Quy Don / Ngo Duc Ke,10.764450,106.646110
1090,Nguyen Van Troi / Ba Thang Hai,10.777738,106.656291
1091,Tran Phu / Nam Ky Khoi Nghia,10.779812,106.651363
1092,Thu Station 1092,10.776046,106.653172
1093,Le Trong Tan / Au Co,10.777830,106.649388
1094,Opera Circle 1094,10.761459,106.637691
1095,Pham Van Dong Crossing,10.767242,106.651211
1096,Tan Crossing 1096,10.783120,106.644379
1097,Le Circle 1097,10.776784,106.630007
1098,Thu Intersection 1098,10.764833,106.635051
1099,Le Lai / Ben Van Don #1,10.780405,106.659947
1100,Nguyen Binh Khiem / Lac Long Quan,10.777134,106.662907
1101,Tan Hoa Dong / Au Co,10.766939,106.646821
1102,Ut Tich / Le Thanh Ton #1,10.773560,106.641219
1103,Pham Ngu Lao Corner,10.761721,106.646183
1104,Au Co / Nguyen Tat Thanh,10.766992,106.645530
1105,Ly Chinh Thang / Tan Hoa Dong,10.764895,106.643409
1106,Au Co Station #1,10.764430,106.651460
1107,Nguyen Van Linh Underpass,10.771701,106.638235
1108,Dam Crossing 1108,10.786193,106.655284
1109,Tao Square 1109,10.762406,106.641709
1110,Hang Station 1110,10.766961,106.654216
1111,Dien Bien Phu / Mac Thi Buoi,10.764490,106.656769
1112,Ben Square 1112,10.783003,106.635341
1113,Nguyen Son / Ut Tich,10.765204,106.639145
1114,Tran Quoc Thao Bridge,10.764739,106.648360
1115,Hung Vuong Underpass,10.773191,106.634986
1116,Le Loi / Nguyen Son,10.777177,106.645788
1117,Pham Viet Chanh / Nguyen Thi Minh Khai,10.777983,106.645897
1118,Cong Hoa / Pham Hong Thai #1,10.762998,106.653982
1119,Hung Vuong / Au Co,10.774899,106.650734
1120,Co Bac / Hung Vuong,10.764360,106.650907
1121,District Market 1121,10.758551,106.643292
1122,Cach Mang Thang Tam Circle,10.756262,106.658651
1123,Vo Van Tan / Tran Hung Dao,10.781784,106.646400
1124,Mac Thi Buoi / Ton That Thuyet,10.757992,106.628399
1125,Le Market 1125,10.763659,106.629202
1126,Vo Thi Sau / Tran Quang Khai,10.756707,106.653390
1127,Binh Underpass 1127,10.769002,106.647035
1128,Hoang Van Thu Terminal #1,10.762541,106.644402
1129,Binh Square 1129,10.768775,106.642826
1130,Nguyen Cong Tru Terminal,10.768657,106.636885
1131,Binh Terminal 1131,10.760188,106.645555
1132,Phu Circle 1132,10.763935,106.635996
1133,Ben Terminal 1133,10.756752,106.635308
1134,Reunification Station 1134,10.753193,106.651546
1135,Ba Thang Hai / Hai Ba Trung,10.756573,106.664206
1136,Hoang Van Thu / Huynh Van Banh,10.766218,106.636432
1137,Nam Ky Khoi Nghia / Pham Viet Chanh,10.778263,106.649999
1138,Nguyen Dinh Chieu / Le Thanh Ton,10.773920,106.636154
1139,Le Thanh Ton / Nguyen Son,10.754258,106.646041
1140,Bui Vien / Tay Thanh,10.766816,106.662095
1141,An Duong Vuong / Yersin,10.774756,106.656120
1142,Quang Trung Square #2,10.772085,106.640771
1143,Nguyen Dinh Chieu / Nguyen Trai,10.774732,106.631428
1144,Hoang Dieu Station,10.757612,106.638198
1145,Phu Bridge 1145,10.770524,106.655183
1146,Go Junction 1146,10.769149,106.639266
1147,Pham Van Dong / Nguyen Thi Dieu,10.773865,106.653602
1148,District Market 1148,10.838499,106.677987
1149,An Duong Vuong Station,10.848456,106.668511
1150,Cho Crossing 1150,10.838731,106.651000
1151,Hung Vuong Bridge,10.857515,106.663778
1152,Ngo Duc Ke / Ton Duc Thang,10.860000,106.661621
1153,Binh Underpass 1153,10.847253,106.680003
1154,District Corner 1154,10.841140,106.657305
1155,Le Loi Station,10.836182,106.665887
1156,Thu Underpass 1156,10.850672,106.671570
1157,Ly Tu Trong / Nguyen Thi Minh Khai,10.846521,106.674537
1158,Le Trong Tan Overpass,10.858443,106.665003
1159,Tay Thanh / Le Thanh Ton,10.860000,106.683354
1160,District Crossing 1160,10.837940,106.678964
1161,Phu Overpass 1161,10.845561,106.663649
1162,Nguyen Binh Khiem Circle,10.822554,106.676956
1163,Co Bac Station #2,10.849257,106.672080
1164,Huynh Van Banh Square,10.846211,106.671855
1165,Nguyen Son Station,10.838943,106.672806
1166,Hung Vuong / Dien Bien Phu,10.851656,106.677797
1167,Tan Crossing 1167,10.844748,106.666922
1168,An Duong Vuong Junction,10.850593,106.670075
1169,Cho Overpass 1169,10.851224,106.666661
1170,Ben Van Don / Ut Tich,10.844065,106.672324
1171,Tan Hoa Dong Station,10.860000,106.669703
1172,Le Duan Market,10.836985,106.676737
1173,Gia Crossing 1173,10.848800,106.677201
1174,Tran Quoc Thao / Nguyen Tat Thanh,10.830547,106.661740
1175,City Market 1175,10.860000,106.678683
1176,Pham Viet Chanh Overpass,10.852019,106.663601
1177,Phan Dang Luu Circle #1,10.850562,106.679146
1178,Opera Terminal 1178,10.841927,106.653349
1179,Mac Thi Buoi Junction,10.857361,106.675167
1180,Dam Station 1180,10.852075,106.681364
1181,Pham Van Dong / An Duong Vuong,10.856815,106.673258
1182,Phan Van Tri / Dong Khoi,10.849033,106.669107
1183,Starlight Terminal 1183,10.843035,106.672498
1184,Phu Intersection 1184,10.860000,106.663468
1185,Tran Hung Dao / Luy Ban Bich,10.849562,106.668413
1186,Le Thanh Ton / Le Loi,10.856878,106.663296
1187,Ton Duc Thang / Lac Long Quan,10.848811,106.671673
1188,Pham Ngu Lao / Bui Vien,10.835975,106.659635
1189,Hoang Sa / Le Hong Phong,10.833277,106.669668
1190,Nguyen Tat Thanh Corner #1,10.839675,106.682387
1191,Saigon Intersection 1191,10.856420,106.677769
1192,De Tham / Nguyen Cong Tru,10.848567,106.658726
1193,Landmark Square 1193,10.852841,106.675836
1194,Ton Duc Thang / Bau Cat,10.830706,106.676268
1195,Quang Trung / Nguyen Dinh Chieu,10.837057,106.660405
1196,Au Co / Ho Tung Mau,10.852636,106.669612
1197,Le Thanh Ton Intersection #1,10.835054,106.676706
1198,Binh Square 1198,10.851567,106.674389
1199,Phan Van Han / Nguyen Son #1,10.845907,106.667993
1200,Nguyen Thai Hoc Station,10.858303,106.665958
1201,Do Xuan Hop / Ton Duc Thang,10.853471,106.669579
1202,Bui Dinh Tuy Intersection,10.835913,106.658576
1203,Nam Ky Khoi Nghia / Phan Dang Luu,10.836664,106.671914
1204,Luy Ban Bich Terminal #2,10.851064,106.672369
1205,Le Lai / Ho Tung Mau,10.852930,106.680072
1206,Le Junction 1206,10.849138,106.675303
1207,District Junction 1207,10.849690,106.671013
1208,Tran Phu Bridge #1,10.843652,106.669783
1209,Nguyen Binh Khiem Intersection #1,10.840296,106.665405
1210,Hoang Dieu / Hoang Sa,10.848896,106.662420
1211,Dam Junction 1211,10.843601,106.673392
1212,Mac Thi Buoi / Lac Long Quan,10.855534,106.665552
1213,Hoang Sa Corner,10.845477,106.658301
1214,Mac Thi Buoi / Bui Vien,10.856171,106.678215
1215,Phan Van Tri / Vo Thi Sau,10.852892,106.662296
1216,Hong Bang Bridge #1,10.855836,106.662286
1217,Thu Crossing 1217,10.856323,106.663535
1218,Dien Bien Phu Bridge,10.839349,106.674530
1219,Le Hong Phong / Nguyen Van Troi,10.838814,106.670890
1220,Au Co / Cach Mang Thang Tam #1,10.847725,106.677949
1221,Cho Junction 1221,10.860000,106.660590
1222,Turtle Market 1222,10.860000,106.668698
1223,Thu Terminal 1223,10.836132,106.678392
1224,Hoang Dieu Intersection,10.844278,106.669510
1225,Binh Junction 1225,10.852111,106.674372
1226,Ut Tich Underpass,10.840842,106.670275
1227,Tan Underpass 1227,10.828664,106.658421
1228,Au Co / Hong Bang,10.835904,106.677327
1229,Xo Viet Nghe Tinh / Do Xuan Hop,10.858848,106.669507
1230,Nguyen Son / Nguyen Van Linh,10.855860,106.671131
1231,Bay Corner 1231,10.842756,106.666929
1232,Le Lai Junction #1,10.847369,106.666735
1233,City Corner 1233,10.853460,106.674311
1234,Truong Sa / Mac Thi Buoi,10.852240,106.678537
1235,Tan Hoa Dong / Tan Son Nhi,10.853475,106.668717
1236,Vo Thi Sau Corner #1,10.856205,106.660387
1237,District Junction 1237,10.843813,106.674452
1238,Starlight Crossing 1238,10.854395,106.672265
1239,Pham Viet Chanh Terminal,10.837924,106.671248
1240,Le Duan Intersection,10.837206,106.659525
1241,Nguyen Van Cu / Ho Tung Mau,10.854497,106.663850
1242,Bui Vien / Nguyen Trai,10.741778,106.638356
1243,Saigon Circle 1243,10.722376,106.639563
1244,Luy Ban Bich Corner #1,10.728198,106.645253
1245,Phan Dang Luu / Le Duan,10.727211,106.645482
1246,Le Van Viet Overpass #1,10.752946,106.641173
1247,Saigon Terminal 1247,10.733282,106.648211
1248,Tran Phu Terminal,10.728392,106.632345
1249,Ba Thang Hai Circle,10.737267,106.643199
1250,Nam Ky Khoi Nghia / Nguyen Trai,10.739808,106.646820
1251,Ly Chinh Thang / Pham Van Dong,10.733359,106.646224
1252,Cach Mang Thang Tam Square,10.733958,106.660185
1253,Le Thanh Ton / Tran Phu,10.738862,106.641499
1254,Cho Overpass 1254,10.738352,106.644285
1255,Nguyen Van Linh / Ly Chinh Thang,10.735687,106.645890
1256,Phan Van Han / Nguyen Trai,10.734705,106.638332
1257,Nguyen Van Linh / Bui Dinh Tuy,10.756050,106.633276
1258,An Bridge 1258,10.732572,106.650098
1259,Tran Phu Corner,10.731531,106.626754
1260,Mac Thi Buoi Overpass #1,10.733845,106.627147
1261,Thu Terminal 1261,10.732169,106.637025
1262,District Bridge 1262,10.734243,106.644739
1263,Hoang Sa Junction,10.724930,106.636880
1264,Binh Market 1264,10.752156,106.646992
1265,Binh Junction 1265,10.731366,106.644907
1266,Le Hong Phong / Yersin,10.745039,106.635067
1267,Nguyen Phi Khanh / An Duong Vuong,10.737740,106.640008
1268,Tran Phu Underpass,10.741098,106.636753
1269,Le Hong Phong / Ton That Thuyet,10.753106,106.638515
1270,Truong Sa / Tran Quoc Thao,10.745492,106.647367
1271,Le Duan Bridge #1,10.722805,106.641741
1272,District Station 1272,10.738818,106.635746
1273,Tan Intersection 1273,10.742736,106.647122
1274,Cho Circle 1274,10.741756,106.646406
1275,Le Intersection 1275,10.742137,106.633316
1276,Hong Bang / Luy Ban Bich,10.739238,106.639280
1277,Nguyen Van Cu / Quang Trung,10.747106,106.647519
1278,Nguyen Cong Tru / Phan Van Han,10.748278,106.632824
1279,Tan Son Nhi Terminal #1,10.741657,106.639080
1280,Gia Underpass 1280,10.723924,106.632735
1281,Tran Hung Dao Circle #2,10.741903,106.632154
1282,Mac Thi Buoi / Pham Hong Thai,10.740132,106.641558
1283,Opera Junction 1283,10.741994,106.644646
1284,Nguyen Xien Intersection,10.736251,106.648705
1285,Ba Thang Hai / Nguyen Van Linh,10.739211,106.634123
1286,Le Lai / Ton Duc Thang,10.746752,106.627317
1287,Mac Thi Buoi / Le Van Viet,10.731412,106.637588
1288,District Crossing 1288,10.735961,106.652813
1289,Cong Hoa Bridge,10.740584,106.648459
1290,Truong Chinh Underpass #2,10.731376,106.620840
1291,Phu Crossing 1291,10.738842,106.635254
1292,Thanh Underpass 1292,10.746288,106.622722
1293,Le Trong Tan Market,10.729105,106.650394
1294,Pasteur Underpass #1,10.739310,106.631893
1295,Nguyen Trai Underpass,10.740925,106.633973
1296,Nguyen Dinh Chieu / Le Hong Phong,10.739293,106.643282
1297,Tan Hoa Dong / Hung Vuong,10.733597,106.626137
1298,Nguyen Xien Bridge,10.742372,106.640195
1299,Le Duan / Tran Quoc Thao,10.742436,106.640651
1300,Tay Thanh Intersection #1,10.732049,106.627535
1301,Saigon Crossing 1301,10.734131,106.636391
1302,Tan Son Nhi / Nguyen Thai Hoc,10.746769,106.649683
1303,Nguyen Son Intersection,10.729268,106.651779
1304,Le Loi Market,10.735677,106.639093
1305,Pham Van Dong / Nguyen Hue,10.739760,106.644292
1306,Bui Dinh Tuy / Luy Ban Bich,10.742283,106.638584
1307,Thu Square 1307,10.731554,106.647128
1308,Binh Intersection 1308,10.750143,106.620000
1309,Au Co / Bui Vien,10.727363,106.646616
1310,Ho Tung Mau / Cong Hoa,10.729395,106.638029
1311,Notre Circle 1311,10.738109,106.635922
1312,Tao Intersection 1312,10.726101,106.642676
1313,Luy Ban Bich / Yersin,10.741867,106.635105
1314,Thu Station 1314,10.751237,106.665557
1315,Nguyen Trai / Ben Van Don,10.727835,106.643636
1316,Ba Thang Hai / Le Duan,10.730012,106.645436
1317,Nguyen Tat Thanh / De Tham,10.735193,106.643213
1318,Phu Bridge 1318,10.739590,106.647550
1319,Hang Station 1319,10.733681,106.632831
1320,Lac Long Quan / Pham Ngu Lao,10.748231,106.638436
1321,Mac Thi Buoi / Pasteur,10.745359,106.645628
1322,Pasteur / Nguyen Van Cu,10.740823,106.640731
1323,Tan Ky Tan Quy / Ton Duc Thang,10.729757,106.647298
1324,Dam Terminal 1324,10.739438,106.627442
1325,Tan Market 1325,10.742191,106.650438
1326,Cho Station 1326,10.729889,106.652376
1327,Notre Terminal 1327,10.741626,106.636430
1328,Thanh Underpass 1328,10.736684,106.639705
1329,Landmark Overpass 1329,10.834697,106.692732
1330,District Market 1330,10.825047,106.700862
1331,Notre Bridge 1331,10.839660,106.705216
1332,Nguyen Thi Minh Khai / Pasteur,10.827704,106.690855
1333,Tan Son Nhi / Pasteur #1,10.830253,106.700814
1334,Le Hong Phong / Nguyen Thai Hoc,10.834853,106.691913
1335,Nguyen Van Troi / Le Van Sy,10.842017,106.702652
1336,Le Duan Circle,10.827379,106.694473
1337,Cho Terminal 1337,10.837456,106.706285
1338,Jade Circle 1338,10.829194,106.696055
1339,Le Quy Don / Co Bac,10.842721,106.704221
1340,Quang Trung / Ton Duc Thang #1,10.827404,106.700050
1341,Reunification Square 1341,10.831812,106.698008
1342,Dam Overpass 1342,10.828076,106.698048
1343,Pham Van Dong Intersection,10.841864,106.691548
1344,Nguyen Tat Thanh Intersection,10.833204,106.705498
1345,District Crossing 1345,10.831666,106.692774
1346,Opera Crossing 1346,10.824784,106.699078
1347,Hung Vuong Overpass #1,10.829851,106.697545
1348,Bay Market 1348,10.828606,106.701742
1349,Tran Hung Dao / Bau Cat,10.820783,106.707004
1350,Phu Overpass 1350,10.829176,106.687807
1351,Saigon Bridge 1351,10.846585,106.699964
1352,Bau Cat Junction #2,10.844273,106.689149
1353,Cach Mang Thang Tam / Tran Quoc Thao,10.826244,106.702007
1354,Le Duan Overpass,10.838368,106.696244
1355,Ly Chinh Thang Circle,10.836158,106.710971
1356,Cach Mang Thang Tam / Phan Dang Luu,10.831515,106.697654
1357,Quang Trung / Cong Hoa,10.847856,106.705544
1358,Pasteur / Huynh Van Banh,10.838242,106.700067
1359,Cho Underpass 1359,10.835376,106.696815
1360,Nguyen Dinh Chieu Corner,10.832186,106.703212
1361,Hoang Dieu Corner #1,10.820875,106.693491
1362,Mac Thi Buoi / Le Van Sy,10.825911,106.688384
1363,Le Van Viet Overpass #2,10.843721,106.711495
1364,Phan Xich Long Terminal #1,10.843098,106.685868
1365,Le Quy Don / Xo Viet Nghe Tinh,10.838199,106.699156
1366,Le Van Sy Station,10.840253,106.691702
1367,Nguyen Cong Tru / Tran Phu,10.834543,106.706795
1368,Pham Van Dong / Yersin,10.820407,106.711752
1369,Gia Overpass 1369,10.832565,106.699347
1370,Nguyen Trai Corner,10.833932,106.709521
1371,Tay Thanh / Hai Ba Trung,10.826217,106.704257
1372,Le Van Sy Circle #3,10.840192,106.693176
1373,Le Lai Overpass,10.827277,106.700831
1374,Co Giang Junction,10.845354,106.714219
1375,Phan Xich Long Circle,10.840528,106.698777
1376,Truong Sa / Ly Chinh Thang,10.846336,106.711063
1377,Hoang Dieu Junction #2,10.843544,106.697371
1378,Quang Trung Terminal #3,10.833292,106.706301
1379,Le Hong Phong / Ton Duc Thang,10.832286,106.684852
1380,Opera Station 1380,10.839367,106.692011
1381,Lac Long Quan Underpass,10.822040,106.694296
1382,Tao Overpass 1382,10.836363,106.703517
1383,Saigon Bridge 1383,10.839096,106.709178
1384,Tan Bridge 1384,10.837861,106.705386
1385,Tan Hoa Dong / Mac Thi Buoi,10.828210,106.690019
1386,Ho Tung Mau Intersection #1,10.832966,106.715243
1387,Co Bac / Ut Tich,10.840391,106.706943
1388,Nguyen Son Overpass #2,10.836890,106.722280
1389,Hang Circle 1389,10.835311,106.701019
1390,Do Xuan Hop / Hung Vuong,10.838765,106.712147
1391,Phan Van Han Crossing,10.836470,106.684902
1392,Phan Van Han / Co Bac,10.847609,106.698195
1393,An Underpass 1393,10.844558,106.714571
1394,District Junction 1394,10.830106,106.695598
1395,Binh Corner 1395,10.832227,106.709105
1396,Luy Ban Bich / Mac Thi Buoi,10.823767,106.697322
1397,Dien Bien Phu / Co Giang,10.848754,106.687415
1398,Ton Duc Thang / Cong Hoa,10.830414,106.690453
1399,Pham Hong Thai / Tay Thanh,10.840497,106.705667
1400,Cho Junction 1400,10.853198,106.695287
1401,Ben Van Don / Yersin,10.833529,106.714190
1402,Phan Van Han / Phan Van Tri,10.838648,106.704355
1403,Do Xuan Hop / Hung Vuong #1,10.836848,106.700116
1404,Le Thanh Ton / Phan Van Han,10.836292,106.706171
1405,Hung Vuong Circle #1,10.844293,106.692113
1406,Huynh Van Banh Market #1,10.838907,106.699483
1407,Quang Trung / Cach Mang Thang Tam,10.827266,106.718664
1408,Tao Junction 1408,10.816772,106.696863
1409,Luy Ban Bich / Huynh Van Banh,10.834788,106.705555
1410,Phan Van Han / Dong Khoi,10.838424,106.710754
1411,Nguyen Trai / De Tham,10.825572,106.699767
1412,Ba Thang Hai / Nguyen Xien,10.830621,106.707446
1413,Phu Bridge 1413,10.838319,106.693824
1414,Tran Quang Khai Station,10.834512,106.703060
1415,Thu Corner 1415,10.839062,106.700186
1416,War Corner 1416,10.845722,106.705034
1417,Cach Mang Thang Tam Junction,10.817205,106.692498
1418,Le Overpass 1418,10.846948,106.710421
1419,Dong Khoi / Tan Ky Tan Quy,10.844106,106.700085
1420,Hoang Van Thu Square,10.840541,106.700916
1421,Co Bac Crossing #2,10.836664,106.704117
1422,Nguyen Tat Thanh Crossing,10.829753,106.706043
1423,Nguyen Tat Thanh / Ho Tung Mau,10.839206,106.703772
1424,Tran Quoc Thao / Quang Trung,10.821813,106.687194
1425,Tay Thanh Square,10.837904,106.690682
1426,Hoang Sa / Quang Trung,10.831509,106.705854
1427,Le Trong Tan / Le Hong Phong,10.826317,106.705735
1428,Tran Quang Khai / Hung Vuong,10.835770,106.723448
1429,Le Overpass 1429,10.826290,106.716360
1430,Phan Van Han / Do Xuan Hop,10.830662,106.730967
1431,Hung Vuong / Nguyen Dinh Chieu,10.821999,106.711852
1432,Le Thanh Ton / Tran Quoc Thao,10.836309,106.713927
1433,Nam Ky Khoi Nghia / Truong Chinh,10.833994,106.710777
1434,Le Hong Phong / Hoang Dieu,10.830853,106.720070
1435,Tan Corner 1435,10.838450,106.725527
1436,Go Underpass 1436,10.828597,106.722249
1437,Tran Quoc Thao / Le Quy Don,10.832001,106.726225
1438,Tran Quang Khai / Dien Bien Phu,10.823325,106.709134
1439,Thu Station 1439,10.833959,106.731122
1440,Ba Thang Hai / Tan Hoa Dong,10.827852,106.718761
1441,Hang Underpass 1441,10.820799,106.720966
1442,War Circle 1442,10.836165,106.717712
1443,District Junction 1443,10.834048,106.732659
1444,Turtle Overpass 1444,10.831630,106.730139
1445,Le Hong Phong / Tran Hung Dao,10.840451,106.726006
1446,Tran Phu Terminal #1,10.841539,106.730478
1447,District Circle 1447,10.813094,106.721772
1448,Le Loi / Pham Ngu Lao,10.814961,106.712542
1449,Phan Van Han Underpass,10.820068,106.709708
1450,Hai Ba Trung Terminal,10.817284,106.712796
1451,Quang Trung Intersection #1,10.820942,106.724605
1452,Saigon Market 1452,10.826516,106.709385
1453,Gia Crossing 1453,10.844279,106.725516
1454,Hung Vuong / Tran Hung Dao,10.809789,106.719566
1455,Tao Intersection 1455,10.835507,106.729876
1456,Hang Underpass 1456,10.818062,106.718435
1457,Co Giang / Ton That Thuyet #1,10.826357,106.715409
1458,Luy Ban Bich Square,10.834663,106.708576
1459,Tan Hoa Dong Square #1,10.823999,106.714430
1460,Jade Terminal 1460,10.830860,106.723079
1461,Tran Hung Dao / Pham Hong Thai #1,10.826884,106.724122
1462,Bui Dinh Tuy / Hai Ba Trung,10.834208,106.713830
1463,Nguyen Thi Dieu / De Tham,10.831236,106.712141
1464,Pham Hong Thai Junction,10.820155,106.715440
1465,Nguyen Xien Bridge #1,10.829984,106.708819
1466,Pham Ngu Lao / Nguyen Son,10.813894,106.723033
1467,Cong Hoa / Dong Khoi,10.816489,106.708890
1468,Truong Sa / Le Lai,10.823866,106.718724
1469,Binh Terminal 1469,10.832365,106.724494
1470,Hoang Sa / Tran Phu,10.824348,106.713183
1471,Luy Ban Bich / Phan Van Tri,10.842149,106.716348
1472,Ton That Thuyet / Le Lai,10.827576,106.723720
1473,Do Xuan Hop Station #1,10.824573,106.714584
1474,Jade Terminal 1474,10.829708,106.714705
1475,Saigon Terminal 1475,10.837900,106.716074
1476,Le Duan Crossing,10.829388,106.719843
1477,Hung Vuong Junction,10.824427,106.725838
1478,Cach Mang Thang Tam Bridge,10.826975,106.720313
1479,Le Van Viet Circle #1,10.839266,106.722963
1480,Tran Quoc Thao Underpass,10.814130,106.727038
1481,Nguyen Cong Tru / Do Xuan Hop,10.827894,106.701440
1482,Phu Market 1482,10.825231,106.716063
1483,Opera Overpass 1483,10.820817,106.711128
1484,Hai Ba Trung / Pham Van Dong,10.824321,106.721941
1485,Le Thanh Ton Market,10.822189,106.730033
1486,Truong Chinh / Nguyen Phi Khanh,10.835228,106.718615
1487,Pasteur / Nguyen Van Linh,10.815361,106.717148
1488,Le Hong Phong Market,10.823729,106.715682
1489,Bau Cat / Bui Dinh Tuy,10.830861,106.720745
1490,Binh Underpass 1490,10.824818,106.731430
1491,Bau Cat Overpass,10.839004,106.718233
1492,Ho Tung Mau / Ut Tich,10.818169,106.716711
1493,Tan Son Nhi / Phan Dang Luu,10.822709,106.718202
1494,Le Hong Phong / Hoang Dieu #1,10.832045,106.712151
1495,Phu Market 1495,10.821452,106.721495
1496,Phan Van Han / Hong Bang,10.820738,106.717994
1497,Quang Trung Underpass,10.821060,106.722934
1498,Le Thanh Ton / Quang Trung,10.843396,106.716454
1499,Do Xuan Hop Crossing #1,10.827680,106.714860
1500,Ly Chinh Thang / Cong Hoa,10.825683,106.710658
1501,Jade Crossing 1501,10.815271,106.733365
1502,Yersin / Tran Quoc Thao,10.833166,106.720102
1503,Au Co / Ton That Thuyet,10.828178,106.720780
1504,Dien Bien Phu Square,10.844870,106.724050
1505,Nguyen Thai Hoc / Le Duan #2,10.832598,106.710539
1506,Tan Terminal 1506,10.834409,106.712898
1507,Hang Square 1507,10.839999,106.710767
1508,Tao Overpass 1508,10.829410,106.709489
1509,Tan Ky Tan Quy / Hoang Dieu,10.813463,106.723995
1510,Dong Khoi / Tran Phu,10.815655,106.730123
1511,Pasteur Bridge,10.827679,106.707463
1512,De Tham / Cong Hoa,10.819294,106.708918
1513,District Bridge 1513,10.845848,106.729111
1514,Tan Son Nhi / Tran Phu,10.834935,106.717444
1515,Au Co / Dong Khoi,10.837213,106.723957
1516,Tran Quang Khai / Ton That Thuyet,10.810080,106.719945
1517,Ly Tu Trong / Bui Vien,10.838388,106.720422
1518,Tran Quang Khai / Phan Xich Long,10.838612,106.717680
1519,Ba Thang Hai Junction,10.829230,106.714346
1520,Nguyen Thi Minh Khai / Tran Quoc Thao,10.823359,106.714271
1521,De Tham / Nam Ky Khoi Nghia,10.822652,106.722635
1522,Dam Market 1522,10.832622,106.731719
1523,Nguyen Thi Minh Khai / Le Quy Don,10.828817,106.711058
1524,Tran Hung Dao / Ngo Duc Ke,10.820554,106.719759
1525,Cong Hoa / Le Thanh Ton,10.818679,106.715405
1526,Hong Bang / Bui Dinh Tuy,10.825948,106.726645
1527,Ba Thang Hai / Nguyen Van Troi,10.834747,106.739037
1528,An Duong Vuong Junction #1,10.820531,106.716983
1529,Pham Viet Chanh Overpass #1,10.837641,106.719002
1530,Notre Corner 1530,10.837087,106.715222
1531,Tan Underpass 1531,10.831837,106.720422
1532,Bay Market 1532,10.822625,106.716696
1533,Reunification Overpass 1533,10.835452,106.717095
1534,Binh Overpass 1534,10.827744,106.732285
1535,Hang Corner 1535,10.835971,106.718167
1536,Ben Bridge 1536,10.840912,106.720169
1537,Jade Market 1537,10.811663,106.721477
1538,Pham Van Dong Crossing #1,10.804432,106.741986
1539,Pasteur / Tran Phu,10.797254,106.738351
1540,Le Trong Tan Corner,10.791061,106.743021
1541,Le Loi Crossing,10.782982,106.759599
1542,Thu Underpass 1542,10.776307,106.753973
1543,Pham Hong Thai Intersection #2,10.801015,106.750418
1544,Vo Thi Sau / Nguyen Thi Dieu,10.803879,106.755521
1545,Phan Van Han / Tay Thanh,10.815325,106.747006
1546,Ben Van Don Crossing #1,10.795909,106.754725
1547,Landmark Intersection 1547,10.801667,106.742042
1548,Tan Square 1548,10.789020,106.740894
1549,Huynh Van Banh / Hoang Van Thu,10.798408,106.751286
1550,Nguyen Cong Tru Intersection,10.804721,106.736600
1551,Pham Van Dong Bridge #1,10.795561,106.748198
1552,Turtle Overpass 1552,10.794377,106.759864
1553,Nguyen Binh Khiem Station,10.789179,106.739347
1554,Le Van Viet / Au Co,10.799133,106.742831
1555,Vo Thi Sau / Nam Ky Khoi Nghia,10.784913,106.749881
1556,Ben Station 1556,10.793107,106.757835
1557,Saigon Underpass 1557,10.795692,106.752720
1558,Nguyen Van Troi Intersection,10.796431,106.760000
1559,Thu Junction 1559,10.798098,106.755542
1560,Reunification Circle 1560,10.780145,106.751437
1561,Nam Ky Khoi Nghia Corner #1,10.794727,106.758674
1562,Le Trong Tan / Tan Ky Tan Quy,10.788729,106.748887
1563,Go Crossing 1563,10.791241,106.750964
1564,Le Duan / Le Thanh Ton,10.812173,106.746770
1565,Nguyen Son / Bau Cat,10.807892,106.755084
1566,Nguyen Tat Thanh Crossing #1,10.797025,106.750512
1567,Tan Ky Tan Quy Junction,10.788469,106.744079
1568,Bay Bridge 1568,10.786008,106.752192
1569,Saigon Terminal 1569,10.803900,106.756510
1570,Le Loi / Le Trong Tan,10.783976,106.748463
1571,Ut Tich Square,10.792113,106.739171
1572,Bay Terminal 1572,10.790563,106.744935
1573,Le Thanh Ton / Nguyen Phi Khanh,10.796271,106.753619
1574,Opera Circle 1574,10.786288,106.744751
1575,An Corner 1575,10.800058,106.756752
1576,District Junction 1576,10.804057,106.747818
1577,District Station 1577,10.795736,106.760000
1578,District Crossing 1578,10.782383,106.760000
1579,Le Bridge 1579,10.788103,106.759579
1580,Reunification Bridge 1580,10.789029,106.734987
1581,Dong Khoi / Phan Van Han,10.792374,106.756409
1582,Nguyen Thi Dieu / Au Co,10.794696,106.750288
1583,Xo Viet Nghe Tinh Underpass,10.790355,106.745460
1584,Nguyen Hue Corner,10.788811,106.755300
1585,District Circle 1585,10.802080,106.750080
1586,Le Lai Junction #2,10.784046,106.753746
1587,Vo Thi Sau / Huynh Van Banh,10.799832,106.748789
1588,District Intersection 1588,10.793146,106.742461
1589,Tran Hung Dao Overpass,10.809816,106.751685
1590,Phan Van Tri Intersection,10.802158,106.758474
1591,Ba Thang Hai Market #1,10.792554,106.755190
1592,Le Duan Crossing #1,10.822157,106.745615
1593,Phan Dang Luu Market,10.805752,106.760000
1594,Dong Khoi / Nguyen Son,10.776753,106.736748
1595,Cach Mang Thang Tam / Nguyen Binh Khiem,10.781164,106.741421
1596,Phu Terminal 1596,10.793783,106.753699
1597,Nguyen Xien / Co Giang,10.782957,106.751776
1598,Dam Market 1598,10.794659,106.738098
1599,Tan Hoa Dong / Phan Van Han,10.787691,106.751182
1600,Phu Overpass 1600,10.784153,106.751345
1601,Le Van Sy / Ben Van Don,10.800049,106.750897
1602,Ly Chinh Thang / Yersin,10.796215,106.757866
1603,Pham Viet Chanh Terminal #1,10.794469,106.752978
1604,An Duong Vuong / Au Co,10.803833,106.752063
1605,District Station 1605,10.787586,106.752763
1606,Vo Van Tan / Pham Hong Thai,10.803098,106.750949
1607,Saigon Overpass 1607,10.800007,106.745735
1608,De Tham / Vo Van Tan,10.800240,106.752647
1609,Xo Viet Nghe Tinh / Phan Xich Long,10.788145,106.757350
1610,District Intersection 1610,10.789781,106.760000
1611,Nguyen Van Linh Circle #1,10.786807,106.722502
1612,Nguyen Tat Thanh Station #1,10.801305,106.749974
1613,Nguyen Xien / Cach Mang Thang Tam,10.800443,106.737490
1614,Truong Sa Terminal,10.798379,106.745311
1615,Phan Van Tri Crossing #1,10.786054,106.746692
1616,Ton That Thuyet Intersection #1,10.792573,106.754373
1617,Mac Thi Buoi / Ut Tich,10.780049,106.755500
1618,Phan Van Han Overpass,10.799358,106.744744
1619,War Underpass 1619,10.798248,106.743321
1620,Hai Ba Trung / Mac Thi Buoi,10.787655,106.747949
1621,Hang Bridge 1621,10.789116,106.759488
1622,Ben Van Don / Le Duan,10.809584,106.732991
1623,Hoang Van Thu / An Duong Vuong,10.789517,106.748501
1624,Truong Chinh / Nguyen Van Cu,10.790185,106.744385
1625,District Intersection 1625,10.806545,106.752059
1626,Nguyen Thi Dieu / Pham Viet Chanh,10.813180,106.758299
1627,Le Van Viet / Le Loi,10.792925,106.747044
1628,District Crossing 1628,10.802043,106.760000
1629,Co Giang Intersection #2,10.800299,106.755653
1630,Gia Square 1630,10.798283,106.753569
1631,Binh Underpass 1631,10.779514,106.738132
1632,Nguyen Trai / An Duong Vuong,10.792008,106.743722
1633,Do Xuan Hop Corner,10.801997,106.752772
1634,Tan Junction 1634,10.808470,106.740825
1635,Lac Long Quan Corner,10.794039,106.743041
1636,Nguyen Son / Nguyen Van Cu,10.790690,106.737606
1637,Turtle Terminal 1637,10.790231,106.752173
1638,Thu Station 1638,10.785778,106.757392
1639,Ly Chinh Thang Circle #1,10.793807,106.747345
1640,Phu Underpass 1640,10.801918,106.742927
1641,Hoang Dieu Market,10.792031,106.732548
1642,Bui Dinh Tuy Corner,10.800118,106.754909
1643,Hong Bang / Au Co,10.795205,106.751944
1644,Ben Van Don Junction,10.784845,106.758608
1645,Nguyen Binh Khiem Overpass,10.798504,106.749879
1646,Truong Chinh / Nguyen Van Troi,10.794488,106.740400
1647,District Square 1647,10.792617,106.741252
1648,Pham Viet Chanh / De Tham,10.795296,106.750954
1649,Le Loi / Ngo Duc Ke #1,10.786787,106.747892
1650,Hai Ba Trung / Pham Van Dong #1,10.798857,106.755803
1651,Le Van Viet Overpass #3,10.797172,106.760000
1652,Nguyen Phi Khanh / Tran Phu,10.788427,106.739591
1653,Hoang Sa Intersection,10.795297,106.749863
1654,Ton That Thuyet / Pasteur,10.790398,106.753798
1655,Le Duan / Vo Thi Sau,10.801803,106.749125
1656,Ba Thang Hai Underpass #1,10.798050,106.748688
1657,Nguyen Binh Khiem / Cong Hoa,10.798694,106.756805
1658,Ben Van Don Station,10.786735,106.741605
1659,Saigon Junction 1659,10.791498,106.753486
1660,Nguyen Cong Tru / Tan Ky Tan Quy,10.787763,106.755298
1661,Tran Quoc Thao / Le Trong Tan #1,10.772665,106.698748
1662,Hoang Van Thu Square #1,10.771392,106.682787
1663,Bau Cat / Co Giang,10.774652,106.700126
1664,Reunification Square 1664,10.765315,106.677286
1665,Tan Hoa Dong / Le Duan,10.763743,106.684078
1666,Notre Market 1666,10.769112,106.705984
1667,Ben Intersection 1667,10.771003,106.692060
1668,Le Van Sy / Le Hong Phong,10.788070,106.698350
1669,Yersin / Phan Van Han,10.775202,106.685443
1670,Hai Ba Trung / Le Van Sy,10.773371,106.700950
1671,Xo Viet Nghe Tinh Square,10.784270,106.691557
1672,Le Van Viet Station #1,10.772675,106.707870
1673,Xo Viet Nghe Tinh / Phan Van Tri #1,10.770751,106.691266
1674,Nguyen Van Troi Overpass,10.775180,106.706505
1675,Le Van Viet Corner #1,10.772816,106.691202
1676,Quang Trung / Le Duan,10.779269,106.706866
1677,Truong Sa Square,10.777202,106.695806
1678,Truong Sa Intersection,10.783684,106.702402
1679,District Underpass 1679,10.766272,106.696164
1680,Thanh Circle 1680,10.777415,106.704508
1681,City Station 1681,10.779486,106.711754
1682,Bay Underpass 1682,10.768206,106.702828
1683,Tan Hoa Dong Junction,10.770439,106.698449
1684,Tran Quoc Thao / Le Trong Tan #2,10.775328,106.688133
1685,Co Bac / Au Co,10.764821,106.694206
1686,Gia Crossing 1686,10.772451,106.702688
1687,Phan Dang Luu / Nguyen Hue,10.768366,106.707536
1688,Quang Trung Station,10.784093,106.697317
1689,Yersin Station #1,10.791655,106.688008
1690,Jade Junction 1690,10.763268,106.697308
1691,Ly Chinh Thang Intersection,10.778816,106.696362
1692,Nguyen Thai Hoc Market,10.776327,106.676548
1693,Nguyen Thi Minh Khai / Co Giang #1,10.771811,106.685572
1694,Hai Ba Trung / Le Lai,10.786379,106.690744
1695,District Circle 1695,10.766521,106.687747
1696,Nguyen Van Troi / Tay Thanh,10.759538,106.684733
1697,Bui Vien / Ly Tu Trong,10.764303,106.690984
1698,Au Co / Nguyen Dinh Chieu,10.763705,106.682499
1699,Turtle Circle 1699,10.769555,106.695956
1700,Notre Bridge 1700,10.771326,106.687752
1701,Ly Tu Trong Crossing,10.771760,106.704256
1702,Nguyen Trai / Ngo Duc Ke,10.765612,106.686098
1703,Nguyen Phi Khanh / Nguyen Hue,10.774548,106.678107
1704,Le Duan / Ton That Thuyet,10.789376,106.695358
1705,Ba Thang Hai Square,10.763175,106.694735
1706,An Duong Vuong Bridge,10.776322,106.701360
1707,Tran Quang Khai / Phan Dang Luu,10.776713,106.691844
1708,Bay Crossing 1708,10.773682,106.713781
1709,Co Bac / De Tham,10.777960,106.693008
1710,Gia Terminal 1710,10.773470,106.703775
1711,Nguyen Hue / Tan Son Nhi,10.772976,106.693295
1712,Nguyen Hue / Co Bac,10.775266,106.694288
1713,Quang Trung Terminal #4,10.755901,106.682357
1714,Le Quy Don / Le Van Sy,10.768431,106.706918
1715,Nguyen Thi Minh Khai / Pham Hong Thai #1,10.785724,106.692270
1716,Nguyen Tat Thanh / Mac Thi Buoi,10.784820,106.686185
1717,Binh Corner 1717,10.778739,106.697215
1718,Nguyen Xien Station #1,10.763067,106.700181
1719,Saigon Junction 1719,10.774357,106.696022
1720,Thu Bridge 1720,10.787511,106.694079
1721,Nguyen Thai Hoc Station #1,10.761641,106.697830
1722,Thu Underpass 1722,10.792377,106.689439
1723,Le Van Viet Bridge,10.766498,106.703797
1724,Phan Van Han / Ly Tu Trong #1,10.777456,106.684155
1725,Le Square 1725,10.770902,106.707902
1726,Saigon Intersection 1726,10.790548,106.684484
1727,Ly Tu Trong Crossing #1,10.774899,106.701443
1728,Nguyen Binh Khiem / Co Giang,10.763053,106.701604
1729,Luy Ban Bich / De Tham,10.775273,106.690942
1730,Dam Crossing 1730,10.765526,106.680947
1731,Ut Tich / Le Trong Tan,10.776727,106.689653
1732,Co Bac Overpass,10.781434,106.699456
1733,Nguyen Thi Dieu Intersection,10.768249,106.688552
1734,Phan Van Tri / Au Co,10.774316,106.703181
1735,Yersin / Le Thanh Ton #1,10.786898,106.691477
1736,Ben Circle 1736,10.786701,106.680740
1737,Le Hong Phong Corner,10.783864,106.700314
1738,Le Thanh Ton Market #1,10.776601,106.682387
1739,Le Loi / Pham Van Dong,10.769179,106.687395
1740,Pham Viet Chanh Intersection,10.778876,106.690979
1741,District Underpass 1741,10.765871,106.696566
1742,Le Trong Tan Corner #1,10.767402,106.684162
1743,Ut Tich / Tan Hoa Dong,10.765883,106.719276
1744,Xo Viet Nghe Tinh / Cach Mang Thang Tam,10.769321,106.716702
1745,Vo Thi Sau Underpass,10.777282,106.691701
1746,Quang Trung Underpass #1,10.773072,106.678507
1747,District Junction 1747,10.756750,106.711063
1748,Opera Station 1748,10.767764,106.694404
1749,Phan Dang Luu / Truong Chinh,10.767102,106.702754
1750,Tan Son Nhi Junction,10.771367,106.699180
1751,District Bridge 1751,10.782078,106.686371
1752,Nguyen Trai / Truong Sa,10.782709,106.705947
1753,Le Loi Corner,10.777338,106.709582
1754,District Station 1754,10.829929,106.694578
1755,Nguyen Thi Minh Khai Crossing #1,10.839542,106.702344
1756,Reunification Bridge 1756,10.835266,106.703581
1757,Nguyen Van Troi Junction,10.827354,106.706766
1758,Le Trong Tan / Nguyen Van Cu,10.837409,106.710394
1759,Binh Terminal 1759,10.827054,106.698575
1760,Tran Phu / Yersin,10.839169,106.696229
1761,Nguyen Xien / Vo Thi Sau,10.835479,106.705224
1762,District Underpass 1762,10.841832,106.706438
1763,Tan Hoa Dong / Hung Vuong #1,10.831090,106.690711
1764,Pham Van Dong Square #1,10.825744,106.716200
1765,Pham Van Dong / Do Xuan Hop,10.821213,106.711897
1766,Go Intersection 1766,10.821852,106.705628
1767,Le Trong Tan / Tran Quang Khai,10.848189,106.701279
1768,Dong Khoi / Le Thanh Ton,10.840211,106.705225
1769,Phan Xich Long / Hai Ba Trung,10.821142,106.699647
1770,Nguyen Van Linh / Ba Thang Hai,10.835064,106.707027
1771,Tran Quoc Thao / Dong Khoi,10.814433,106.713897
1772,Pham Van Dong Terminal #1,10.840642,106.701722
1773,Pham Hong Thai / Tay Thanh #1,10.837433,106.712086
1774,Dong Khoi / Le Van Sy,10.826172,106.703628
1775,Dien Bien Phu Square #1,10.835810,106.705945
1776,Le Thanh Ton / Tan Ky Tan Quy,10.827034,106.701592
1777,Ly Chinh Thang / Nguyen Tat Thanh,10.822587,106.709690
1778,District Market 1778,10.812981,106.710181
1779,Hong Bang / Phan Dang Luu,10.834735,106.715736
1780,Binh Bridge 1780,10.829222,106.694887
1781,Hung Vuong / Co Bac,10.839143,106.717672
1782,De Tham / Pham Van Dong #1,10.842244,106.706697
1783,Hong Bang / Ly Tu Trong,10.839277,106.711363
1784,Le Loi / Ton Duc Thang,10.829157,106.720887
1785,Pham Ngu Lao / De Tham,10.816410,106.719625
1786,Quang Trung / Ton Duc Thang #2,10.837315,106.716468
1787,Truong Chinh Circle #1,10.819288,106.702686
1788,Co Giang / Tran Quang Khai,10.818203,106.694281
1789,War Terminal 1789,10.841161,106.702966
1790,District Overpass 1790,10.826323,106.701538
1791,Yersin Underpass #1,10.831264,106.702308
1792,Le Square 1792,10.833578,106.693066
1793,An Circle 1793,10.824570,106.707732
1794,Hong Bang / Ly Tu Trong #1,10.827932,106.687135
1795,Le Van Sy / Ly Tu Trong,10.830170,106.708144
1796,Ben Station 1796,10.831084,106.694774
1797,Phan Van Han / Nguyen Xien,10.823285,106.688279
1798,Go Station 1798,10.826738,106.693895
1799,Nguyen Hue Underpass,10.836681,106.705387
1800,Starlight Overpass 1800,10.817060,106.726171
1801,Do Xuan Hop Intersection,10.823041,106.698003
1802,Pham Hong Thai / Nam Ky Khoi Nghia,10.834987,106.711747
1803,Bui Vien / Phan Van Tri,10.824597,106.708579
1804,Go Circle 1804,10.836707,106.701815
1805,Bau Cat / Hoang Van Thu,10.829477,106.711287
1806,Cho Terminal 1806,10.849762,106.696217
1807,Nguyen Hue / Nguyen Son,10.843631,106.695218
1808,Nguyen Thai Hoc / Tran Quang Khai,10.824978,106.706594
1809,District Crossing 1809,10.830633,106.705550
1810,Dam Junction 1810,10.814678,106.701822
1811,Le Hong Phong / Tran Quang Khai,10.832706,106.712868
1812,Tran Phu Square #2,10.825331,106.703495
1813,Hoang Sa / Bui Vien,10.839969,106.715148
1814,Xo Viet Nghe Tinh / Hai Ba Trung,10.832355,106.707063
1815,Ton That Thuyet / Quang Trung,10.819770,106.706469
1816,Nguyen Binh Khiem Station #1,10.817862,106.700489
1817,Co Giang Square,10.813365,106.704722
1818,Cach Mang Thang Tam / Nguyen Thai Hoc,10.834454,106.707365
1819,Phan Van Tri / Le Hong Phong,10.817842,106.704933
1820,An Circle 1820,10.844445,106.703004
1821,Cach Mang Thang Tam / Nguyen Xien,10.818024,106.706128
1822,Le Hong Phong Intersection,10.836198,106.709072
1823,Bui Dinh Tuy / Nguyen Son #1,10.817714,106.707216
1824,District Intersection 1824,10.841998,106.727672
1825,Nam Ky Khoi Nghia / Co Bac,10.832422,106.706134
1826,Ngo Duc Ke / Le Lai #1,10.820031,106.704221
1827,Saigon Junction 1827,10.830085,106.712236
1828,Saigon Intersection 1828,10.831614,106.705172
1829,Turtle Square 1829,10.830077,106.711261
1830,Bui Vien / Ton Duc Thang,10.831373,106.714234
1831,Le Thanh Ton Corner,10.825593,106.694346
1832,Au Co Market,10.822171,106.716135
1833,Pham Ngu Lao / Le Thanh Ton,10.829784,106.715393
1834,Phan Dang Luu / An Duong Vuong,10.828121,106.691853
1835,Reunification Circle 1835,10.838392,106.698322
1836,Cach Mang Thang Tam / Dong Khoi,10.831844,106.675849
1837,Cong Hoa Corner,10.841357,106.705738
1838,Hung Vuong Crossing,10.842468,106.694393
1839,Tran Hung Dao Square,10.825887,106.700796
1840,Dong Khoi / Hoang Van Thu,10.825539,106.692536
1841,Ben Van Don / Phan Van Han,10.855474,106.707740
1842,Ba Thang Hai Terminal,10.829126,106.684921
1843,Nguyen Tat Thanh Bridge #1,10.835611,106.691869
1844,Dien Bien Phu / Au Co,10.834888,106.704803
1845,Lac Long Quan Market,10.830172,106.684213
1846,Vo Thi Sau / Pham Viet Chanh,10.833014,106.690326
1847,Nguyen Cong Tru / Mac Thi Buoi,10.835742,106.701999
1848,Pham Van Dong Crossing #2,10.831787,106.695024
1849,City Corner 1849,10.842967,106.699811
1850,Tan Station 1850,10.846411,106.705995
1851,Bau Cat Junction #3,10.840944,106.695759
1852,Nguyen Van Cu Circle,10.838097,106.694714
1853,Tan Son Nhi Crossing,10.845351,106.697984
1854,Phan Xich Long Overpass,10.833483,106.687715
1855,Vo Thi Sau Corner #2,10.828848,106.692183
1856,Ben Van Don Square,10.834331,106.710234
1857,District Terminal 1857,10.823369,106.704050
1858,Quang Trung / Tran Quang Khai,10.841900,106.714369
1859,Nguyen Van Cu / Ben Van Don,10.834585,106.698426
1860,Le Hong Phong / Nguyen Van Troi #1,10.833596,106.694980
1861,Starlight Square 1861,10.824516,106.702957
1862,Notre Station 1862,10.833461,106.685367
1863,Dong Khoi Square,10.850423,106.701690
1864,Bau Cat / Le Trong Tan,10.835610,106.703089
1865,Pham Ngu Lao Market,10.856337,106.701511
1866,Tan Terminal 1866,10.834154,106.694558
1867,District Overpass 1867,10.829647,106.700537
1868,Nguyen Van Linh / Pham Viet Chanh,10.833980,106.699298
1869,Ben Intersection 1869,10.848916,106.709771
1870,Ho Tung Mau / Vo Thi Sau,10.843924,106.701015
1871,Go Terminal 1871,10.846284,106.694006
1872,Ho Tung Mau / Pham Hong Thai,10.837446,106.703128
1873,Dong Khoi / Tay Thanh,10.823934,106.713730
1874,Thanh Bridge 1874,10.833003,106.704105
1875,Phan Van Han / Yersin,10.838625,106.692999
1876,Vo Van Tan Junction #2,10.848893,106.693772
1877,Nguyen Trai Corner #1,10.849851,106.682864
1878,Tan Hoa Dong Crossing,10.840789,106.706716
1879,Nguyen Trai Crossing,10.841977,106.705260
1880,Pham Hong Thai Corner,10.833724,106.703493
1881,Tay Thanh Overpass,10.826415,106.700080
1882,Binh Station 1882,10.828364,106.712212
1883,Saigon Market 1883,10.827394,106.704334
1884,Jade Market 1884,10.838994,106.692643
1885,Ly Tu Trong Intersection #1,10.824716,106.693964
1886,Le Lai Market #1,10.832093,106.703865
1887,Nguyen Thai Hoc / Le Lai,10.831348,106.700445
1888,Pham Viet Chanh Terminal #2,10.844914,106.686678
1889,Ton That Thuyet Intersection #2,10.845249,106.712080
1890,District Station 1890,10.835500,106.695752
1891,District Underpass 1891,10.834265,106.687468
1892,Hang Square 1892,10.843879,106.706272
1893,Vo Van Tan / Le Loi,10.843066,106.701184
1894,Tran Quang Khai / Luy Ban Bich,10.822273,106.693570
1895,Thanh Terminal 1895,10.835038,106.686473
1896,Le Loi Circle #1,10.829410,106.703576
1897,Hang Square 1897,10.837729,106.701557
1898,Truong Chinh Underpass #3,10.841570,106.689264
1899,Thu Station 1899,10.844171,106.683997
1900,Co Bac / Le Thanh Ton,10.841365,106.697086
1901,Cong Hoa Bridge #1,10.843070,106.702498
1902,Saigon Overpass 1902,10.843603,106.687392
1903,District Circle 1903,10.842933,106.712157
1904,Ho Tung Mau / Ly Chinh Thang,10.823228,106.690392
1905,Truong Chinh / Hoang Sa,10.824554,106.692041
1906,Tan Terminal 1906,10.832940,106.721519
1907,Le Loi Corner #1,10.842244,106.701715
1908,Saigon Station 1908,10.835788,106.679547
1909,Ton Duc Thang Corner,10.832289,106.678401
1910,Cach Mang Thang Tam / Pasteur,10.824587,106.706985
1911,Cho Circle 1911,10.828873,106.695658
1912,Bau Cat / Ly Tu Trong,10.841988,106.710026
1913,Nguyen Trai / Ly Chinh Thang,10.841128,106.698050
1914,Tay Thanh Overpass #1,10.845008,106.699356
1915,Tan Corner 1915,10.822033,106.697751
1916,Co Giang Intersection #3,10.837702,106.698907
1917,Dam Crossing 1917,10.839674,106.701835
1918,Truong Chinh Crossing,10.837071,106.695568
1919,Vo Van Tan / Nguyen Van Cu,10.845115,106.704102
1920,Phan Xich Long Terminal #2,10.833399,106.691126
1921,Hoang Van Thu / Quang Trung,10.832995,106.696181
1922,Bay Overpass 1922,10.850923,106.703645
1923,Le Quy Don Corner #1,10.840845,106.705287
1924,Dong Khoi Bridge,10.819984,106.704802
1925,District Crossing 1925,10.838706,106.687738
1926,Vo Van Tan / Vo Thi Sau,10.834389,106.704289
1927,Au Co / Pham Van Dong,10.828773,106.705503
1928,Ben Van Don Station #1,10.846712,106.706411
1929,Gia Crossing 1929,10.824554,106.724244
1930,Luy Ban Bich / Nguyen Trai,10.835179,106.701946
1931,Le Lai / Hung Vuong,10.846211,106.701867
1932,Tran Hung Dao / Le Hong Phong,10.841068,106.699002
1933,Thanh Underpass 1933,10.838198,106.701266
1934,Huynh Van Banh / Tran Quang Khai,10.827614,106.702255
1935,Phan Van Tri Circle #1,10.837283,106.696665
1936,Gia Market 1936,10.839369,106.706119
1937,Notre Junction 1937,10.833114,106.692675
1938,Tan Son Nhi / Nguyen Son,10.819859,106.693420
1939,Le Quy Don Junction #1,10.842840,106.709066
1940,Hoang Dieu / Huynh Van Banh,10.845176,106.712532
1941,Tan Overpass 1941,10.834894,106.699657
1942,Dien Bien Phu / Phan Dang Luu,10.815505,106.706361
1943,Le Lai / Tran Hung Dao,10.845902,106.697893
1944,Le Station 1944,10.837311,106.695999
1945,Bui Vien Square #1,10.826183,106.697179
1946,An Overpass 1946,10.831068,106.698195
1947,Tan Ky Tan Quy / Ton Duc Thang #1,10.832343,106.691796
1948,Tran Hung Dao / Nguyen Son,10.850056,106.699324
1949,Tan Ky Tan Quy Market,10.838986,106.698206
1950,Cho Overpass 1950,10.842598,106.704829
1951,Lac Long Quan / Truong Chinh,10.833501,106.707844
1952,Go Corner 1952,10.831703,106.703333
1953,War Junction 1953,10.852932,106.696165
1954,District Overpass 1954,10.848549,106.694573
1955,Ton That Thuyet Overpass #1,10.834185,106.714959
1956,Ben Junction 1956,10.836486,106.716897
1957,Le Trong Tan Corner #2,10.839996,106.706110
1958,Phan Dang Luu Bridge,10.841522,106.699478
1959,Ut Tich Station #1,10.826325,106.687908
1960,Nguyen Van Cu Station,10.843422,106.707985
1961,Thu Underpass 1961,10.843532,106.694278
1962,War Overpass 1962,10.838570,106.690755
1963,Nguyen Binh Khiem / Truong Sa,10.848779,106.692123
1964,Au Co / Cach Mang Thang Tam #2,10.837094,106.700755
1965,Nguyen Dinh Chieu Bridge #1,10.847929,106.701928
1966,Co Bac / Huynh Van Banh,10.832697,106.709225
1967,Bau Cat Junction #4,10.832112,106.694346
1968,Lac Long Quan / Le Trong Tan,10.828782,106.691703
1969,Tran Quang Khai / Ly Tu Trong,10.838749,106.702829
1970,Truong Sa Station,10.849224,106.706960
1971,Dam Overpass 1971,10.847070,106.708172
1972,Le Quy Don / Hong Bang,10.846398,106.705374
1973,Le Loi / Nguyen Van Cu,10.847773,106.691821
1974,De Tham Corner,10.829500,106.690218
1975,Phan Xich Long / De Tham,10.827987,106.693141
1976,Nguyen Xien / Cach Mang Thang Tam #1,10.836264,106.701581
1977,Pasteur Corner,10.837177,106.707199
1978,Tan Circle 1978,10.837727,106.702300
1979,Le Underpass 1979,10.846091,106.706604
1980,Phan Dang Luu Circle #2,10.838678,106.691766
1981,Nguyen Cong Tru Station,10.841250,106.710540
1982,District Corner 1982,10.827627,106.703277
1983,Tan Corner 1983,10.827740,106.692114
1984,An Bridge 1984,10.844935,106.701762
1985,Pham Hong Thai Station,10.840911,106.689542
1986,Vo Van Tan / Dien Bien Phu,10.829334,106.712449
1987,De Tham Junction #2,10.831317,106.693312
1988,Nguyen Thi Dieu Market #1,10.831318,106.707622
1989,Dien Bien Phu / Pham Ngu Lao,10.841551,106.702388
1990,Vo Van Tan Bridge #1,10.823797,106.695001
1991,Hoang Sa / Nam Ky Khoi Nghia,10.835848,106.692755
1992,Ba Thang Hai / Le Trong Tan,10.843926,106.699235
1993,An Junction 1993,10.831924,106.706707
1994,Au Co Circle,10.825816,106.687381
1995,Pham Van Dong / Do Xuan Hop #1,10.849769,106.715064
1996,Ton Duc Thang / Ton That Thuyet,10.846739,106.702547
1997,Nguyen Tat Thanh Crossing #2,10.834503,106.693425
1998,War Circle 1998,10.829072,106.697338
1999,De Tham Corner #1,10.832667,106.691431
